Store ID,Name,Brand,Store Number,Phone Number,Ownership Type,Street Combined,Street 1,Street 2,Street 3,City,Country Subdivision,Country,Postal Code,Coordinates,Latitude,Longitude,Timezone,Current Timezone Offset,Olson Timezone
1,Plaza Hollywood,Starbucks,34638-85784,29554570,LS,"Level 2, Plaza Hollywood, Diamond Hill,, Kowloon","Level 2, Plaza Hollywood, Diamond Hill,",Kowloon,,Hong Kong,91,CN,,"(22.3407001495361, 114.201690673828)",22.34070015,114.2016907,China Standard Time,480,GMT+08:00 Asia/Beijing
6,Exchange Square,Starbucks,34601-20281,21473739,LS,"Shops 308-310, 3/F.,, Exchange Square Podium, Central, HK.","Shops 308-310, 3/F.,","Exchange Square Podium, Central, HK.",,Hong Kong,91,CN,,"(22.2839393615723, 114.158187866211)",22.28393936,114.1581879,China Standard Time,480,GMT+08:00 Asia/Beijing
8,Telford Plaza,Starbucks,34610-28207,27541323,LS,"Shop Unit G1A, Atrium A, Telford Plaza I, , Kowloon Bay, Kowloon","Shop Unit G1A, Atrium A, Telford Plaza I",", Kowloon Bay, Kowloon",,Kowloon,91,CN,,"(22.3228702545166, 114.213439941406)",22.32287025,114.2134399,China Standard Time,480,GMT+08:00 Asia/Beijing
13,Hong Kong Station,Starbucks,34622-64463,25375216,LS,"Concession HOK 3a & b, LAR Hong Kong Station",Concession HOK 3a & b,LAR Hong Kong Station,,Hong Kong,91,CN,,"(22.2844505310059, 114.158462524414)",22.28445053,114.1584625,China Standard Time,480,GMT+08:00 Asia/Beijing
17,"Pacific Place, Central",Starbucks,34609-22927,29184762,LS,"Shop 131, Level 1, Pacific Place, 88 Queensway, HK","Shop 131, Level 1, Pacific Place","88 Queensway, HK",,Hong Kong,91,CN,,"(22.2776565551758, 114.164619445801)",22.27765656,114.1646194,China Standard Time,480,GMT+08:00 Asia/Beijing
23,Three Garden Road,Starbucks,34616-51681,25091007,LS,"Shop 3, Citibank Plaza,3 Garden Road, Central, HK","Shop 3, Citibank Plaza,3 Garden Road","Central, HK",,Hong Kong,91,CN,,"(22.2785205841064, 114.160873413086)",22.27852058,114.1608734,China Standard Time,480,GMT+08:00 Asia/Beijing
25,MTR Central,Starbucks,34630-69462,28400565,LS,"Kiosk Nos. CEN K4-K5, Transfer Concourse, , MTR Central Station","Kiosk Nos. CEN K4-K5, Transfer Concourse",", MTR Central Station",,Hong Kong,91,CN,,"(22.2811298370361, 114.159461975098)",22.28112984,114.159462,China Standard Time,480,GMT+08:00 Asia/Beijing
27,Wan Chai Tower,Starbucks,34615-55880,28240568,LS,"G/F, Wanchai Tower, 12 Harbour Road, Wanchai, HK","G/F, Wanchai Tower, 12 Harbour Road","Wanchai, HK",,Hong Kong,91,CN,,"(22.2800197601318, 114.17261505127)",22.28001976,114.1726151,China Standard Time,480,GMT+08:00 Asia/Beijing
34,Shun Tak Centre,Starbucks,34634-82422,25496508,LS,"Shop unit 226-227, 2/F, Shun Tak Centre,, Nos.168-200 Connaught Road Central","Shop unit 226-227, 2/F, Shun Tak Centre,",Nos.168-200 Connaught Road Central,,Hong Kong,91,CN,,"(22.2878608703613, 114.152206420898)",22.28786087,114.1522064,China Standard Time,480,GMT+08:00 Asia/Beijing
37,Sun Hung Kai Centre,Starbucks,34605-28027,28457367,LS,"Shop G12-13, G/F. Sun Hung Kai Centre, 30 Harbour Road, Wanchai","Shop G12-13, G/F. Sun Hung Kai Centre","30 Harbour Road, Wanchai",,Wan Chai,91,CN,,"(22.2805519104004, 114.176803588867)",22.28055191,114.1768036,China Standard Time,480,GMT+08:00 Asia/Beijing
38,Lamcy Plaza,Starbucks,34247-62179,04-3347995,LS,"Oud Meena Road, First floor",Oud Meena Road,First floor,,Dubai,DU,AE,,"(25.2343463897705, 55.3084297180176)",25.23434639,55.30842972,Arabian Standard Time,240,GMT+04:00 Asia/Dubai
39,Wafi Mall,Starbucks,34249-62099,04-3243641,LS,"Oud Mina, Shop # 212, Wafi Mall",Oud Mina,"Shop # 212, Wafi Mall",,Dubai,DU,AE,,"(25.2494506835938, 55.2799186706543)",25.24945068,55.27991867,Arabian Standard Time,240,GMT+04:00 Asia/Dubai
41,Al Gurrair Mall,Starbucks,34219-17920,04-2212559,LS,Deira- Riqqa Street,Deira- Riqqa Street,,,Dubai,DU,AE,,"(25.2668266296387, 55.3170433044434)",25.26682663,55.3170433,Arabian Standard Time,240,GMT+04:00 Asia/Dubai
42,Umm Sequeim,Starbucks,34291-80114,43952230,LS,"Jumeirah, Near Spinney's",Jumeirah,Near Spinney's,,Dubai,DU,AE,,"(25.1678905487061, 55.2284088134766)",25.16789055,55.22840881,Arabian Standard Time,240,GMT+04:00 Asia/Dubai
44,Jebel Ali,Starbucks,34292-76574,04-8816680,LS,"Jebel Ali, Near Gate No. 4",Jebel Ali,Near Gate No. 4,,Dubai,DU,AE,,"(24.9915599822998, 55.0934791564941)",24.99155998,55.09347916,Arabian Standard Time,240,GMT+04:00 Asia/Dubai
45,Emirates Tower,Starbucks,34211-17922,04-3303363,LS,Sheikh Zayed Road,Sheikh Zayed Road,,,Dubai,DU,AE,,"(25.2148704528809, 55.2826499938965)",25.21487045,55.28264999,Arabian Standard Time,240,GMT+04:00 Asia/Dubai
48,Palm Strip,Starbucks,34210-16835,04-3453808,LS,Jumeira 1,Jumeira 1,,,Dubai,DU,AE,,"(25.2327899932861, 55.2636985778809)",25.23278999,55.26369858,Arabian Standard Time,240,GMT+04:00 Asia/Dubai
49,Dubai Marina,Starbucks,34315-87671,04-3675468,LS,Sheik Zayed,Sheik Zayed,,,Dubai,DU,AE,,"(25.0842437744141, 55.150089263916)",25.08424377,55.15008926,Arabian Standard Time,240,GMT+04:00 Asia/Dubai
50,Marina Mall,Starbucks,34262-62540,02-6815883,LS,Marina Mall,Marina Mall,,,Abu Dhabi,AZ,AE,,"(24.4709606170654, 54.3222885131836)",24.47096062,54.32228851,Arabian Standard Time,240,GMT+04:00 Asia/Dubai
51,Abu Dhabi Mall,Starbucks,34227-33225,02-6454914,LS,"Al Salam Street, Tourist Club Area","Al Salam Street, Tourist Club Area",,,Abu Dhabi,AZ,AE,,"(24.4993896484375, 54.3701515197754)",24.49938965,54.37015152,Arabian Standard Time,240,GMT+04:00 Asia/Dubai
52,Hamdan Street,Starbucks,34260-17877,02-6261001,LS,Hamdan Street,Hamdan Street,,,Abu Dhabi,AZ,AE,,"(24.2120094299316, 55.6228904724121)",24.21200943,55.62289047,Arabian Standard Time,240,GMT+04:00 Asia/Muscat
55,Ajman City Center,Starbucks,34236-44282,06-7482923,LS,"opposite to Etisalat Building, Ground floor",opposite to Etisalat Building,Ground floor,,Ajman,AJ,AE,,"(25.4016494750977, 55.4778709411621)",25.40164948,55.47787094,Arabian Standard Time,240,GMT+04:00 Asia/Dubai
60,Mercato Town Centre,Starbucks,34284-65720,04-3449611,LS,Jumeira Road,Jumeira Road,,,Dubai,DU,AE,,"(25.2168598175049, 55.2535247802734)",25.21685982,55.25352478,Arabian Standard Time,240,GMT+04:00 Asia/Dubai
61,Deira City Center Mall,Starbucks,34209-17918,42958543,LS,Deira,Deira,,,Dubai,DU,AE,,"(25.2541198730469, 55.3313217163086)",25.25411987,55.33132172,Egypt Standard Time,120,GMT+04:00 Asia/Dubai
62,Bukhatir Tower,Starbucks,34253-62541,06-5560572,LS,Sharjah Buheira Corniche,Sharjah Buheira Corniche,,,Sharjah,SH,AE,,"(25.3342761993408, 55.375862121582)",25.3342762,55.37586212,Arabian Standard Time,240,GMT+04:00 Asia/Dubai
63,Sahara Center,Starbucks,34259-54260,06-5315823,LS,Alnahda,Alnahda,,,Sharjah,SH,AE,,"(25.2982196807861, 55.3715591430664)",25.29821968,55.37155914,Arabian Standard Time,240,GMT+04:00 Asia/Dubai
64,Mega Mall,Starbucks,34252-54259,06-5744316,LS,"Near Spinneys Round Bord, 1st floor",Near Spinneys Round Bord,1st floor,,Sharjah,SH,AE,,"(25.3450508117676, 55.3978996276855)",25.34505081,55.39789963,Arabian Standard Time,240,GMT+04:00 Asia/Dubai
65,American University of Sharjah,Starbucks,34217-27108,06-5585722,LS,"Airport Road, Universities Complex",Airport Road,Universities Complex,,Sharjah,SH,AE,,"(25.2977695465088, 55.4841499328613)",25.29776955,55.48414993,Arabian Standard Time,240,GMT+04:00 Asia/Dubai
70,Uptown Mirdif,Starbucks,31338-103600,42888102,LS,Mirdif,Mirdif,,,Dubai,DU,AE,,"(25.2254199981689, 55.4255218505859)",25.22542,55.42552185,Arabian Standard Time,240,GMT+04:00 Asia/Dubai
71,Al Wahda Mall,Starbucks,31719-103601,24437197,LS,"11th Street, Ground Floor, Main Entrance",11th Street,"Ground Floor, Main Entrance",,Abu Dhabi,AZ,AE,,"(24.4713306427002, 54.3723411560059)",24.47133064,54.37234116,Arabian Standard Time,240,GMT+04:00 Asia/Dubai
72,Sahara Tower,Starbucks,31853-109684,04 3316164,LS,"Ground Floor, Sheikh Zayed Road","Ground Floor, Sheikh Zayed Road",,,Dubai,DU,AE,,"(24.9245929718018, 54.9971771240234)",24.92459297,54.99717712,Arabian Standard Time,240,GMT+04:00 Asia/Dubai
73,Atlantis,Starbucks,32741-141410,44261435,LS,"Dubai Palm Island, Located in Dolphin Bay",Dubai Palm Island,Located in Dolphin Bay,,Dubai,DU,AE,,"(25.1337795257568, 55.120189666748)",25.13377953,55.12018967,Arabian Standard Time,240,GMT+04:00 Asia/Dubai
74,Shangri-La Souq,Starbucks,32767-131566,25581641,LS,"Shangri-La Souk, Um Al Nar","Shangri-La Souk, Um Al Nar",,,Abu Dhabi,AZ,AE,3167,"(24.419849395752, 54.5104713439941)",24.4198494,54.51047134,Arabian Standard Time,240,GMT+04:00 Asia/Dubai
75,Qanat Al Qasba,Starbucks,1359-138434,06-5560318,LS,Al Taawun Road,Al Taawun Road,,,Sharjah,SH,AE,,"(25.3231391906738, 55.3783302307129)",25.32313919,55.37833023,Arabian Standard Time,240,GMT+04:00 Asia/Dubai
76,Camellia Flowers,Starbucks,1935-141406,02-6355542,LS,"Khalidiya Area Khalidiya street, Behind Union Bank and Finance House",Khalidiya Area Khalidiya street,Behind Union Bank and Finance House,,Abu Dhabi,AZ,AE,,"(24.4686908721924, 54.3382415771484)",24.46869087,54.33824158,Arabian Standard Time,240,GMT+04:00 Asia/Dubai
80,Al Hamra Mall,Starbucks,1911-138604,07-2434772,LS,Umm-Al Qawain Ajman & Sharjah hwy,Umm-Al Qawain Ajman & Sharjah hwy,,,Ras Al Khaimah,RK,AE,,"(25.6822834014893, 55.7816886901855)",25.6822834,55.78168869,Arabian Standard Time,240,GMT+04:00 Asia/Dubai
82,Bawadi Mall,Starbucks,1926-141411,37840012,LS,Maziad road after Hilton roundabout,Maziad road after Hilton roundabout,,,Al Ain,AZ,AE,,"(24.1593208312988, 55.8054885864258)",24.15932083,55.80548859,Arabian Standard Time,240,GMT+04:00 Asia/Muscat
83,Twin Towers 13th Street,Starbucks,1897-120044,26430239,LS,"3th street Abudhabi(Al Najda Street), beside Al Masood Nissan Show room",3th street Abudhabi(Al Najda Street),beside Al Masood Nissan Show room,,Abu Dhabi,AZ,AE,,"(23.8500480651855, 55.5276184082031)",23.85004807,55.52761841,Arabian Standard Time,240,GMT+04:00 Asia/Dubai
85,Burjuman Centre II,Starbucks,34320-74020,43516656,LS,Banks Street,Banks Street,,,Dubai,DU,AE,,"(25.2537403106689, 55.3034973144531)",25.25374031,55.30349731,Arabian Standard Time,240,GMT+04:00 Asia/Dubai
86,Old Town Commercial Island,Starbucks,32144-123448,44200343,LS,"Burj Dubai Down Town, Level 3",Burj Dubai Down Town,Level 3,,Dubai,DU,AE,3167,"(25.1918640136719, 55.2774772644043)",25.19186401,55.27747726,Arabian Standard Time,240,GMT+04:00 Asia/Dubai
88,Madina Jumeirah,Starbucks,34317-95971,43686188,LS,Jumeirah,Jumeirah,,,Dubai,DU,AE,,"(25.1314506530762, 55.1872482299805)",25.13145065,55.18724823,Arabian Standard Time,240,GMT+04:00 Asia/Dubai
90,Khalidiya Strt (Abu'D),Starbucks,30781-99022,26670052,LS,Khalidiya St.,Khalidiya St.,,,Abu Dhabi,AZ,AE,,"(24.18798828125, 55.6879272460938)",24.18798828,55.68792725,Arabian Standard Time,240,GMT+04:00 Asia/Muscat
92,Jimmy Mall,Starbucks,34332-97778,37627680,LS,"Baladia Road, opposite Passport Office",Baladia Road,opposite Passport Office,,Al Ain,AZ,AE,,"(24.2420997619629, 55.7267608642578)",24.24209976,55.72676086,Arabian Standard Time,240,GMT+04:00 Asia/Muscat
93,HCT Abu Dhabi Women's College Block,Starbucks,1579-122101,26426280,LS,"Najda Street, Higher Colleges of Technology",Najda Street,Higher Colleges of Technology,,Abu Dhabi,AZ,AE,3167,"(24.4879398345947, 54.3720207214355)",24.48793983,54.37202072,Arabian Standard Time,240,GMT+04:00 Asia/Dubai
94,DBX - Dubai Airport Terminal 3 C201,Starbucks,1577-123446,42203661,LS,"Terminal 3,  Near Departure Gate 205, West Wing Food Court Area","Terminal 3,  Near Departure Gate 205",West Wing Food Court Area,,Dubai,DU,AE,2525,"(25.2525749206543, 55.3539924621582)",25.25257492,55.35399246,Arabian Standard Time,240,GMT+04:00 Asia/Dubai
95,Gardens 3,Starbucks,34335-97976,43685991,LS,"Jebel Ali Gardens, Gardens III Tunisia Court",Jebel Ali Gardens,Gardens III Tunisia Court,,Dubai,DU,AE,,"(25.0406303405762, 55.1213111877441)",25.04063034,55.12131119,Arabian Standard Time,240,GMT+04:00 Asia/Dubai
96,Gardens 2,Starbucks,34337-97975,43685986,LS,"Jebel Ali Gardens, Gardens II China Court",Jebel Ali Gardens,Gardens II China Court,,Dubai,DU,AE,,"(25.0462512969971, 55.1241073608398)",25.0462513,55.12410736,Arabian Standard Time,240,GMT+04:00 Asia/Dubai
97,Gardens 1,Starbucks,34336-97974,43685403,LS,"Jebel Ali Gardens, Gardens I Persia Court",Jebel Ali Gardens,Gardens I Persia Court,,Dubai,DU,AE,,"(25.0438499450684, 55.1223106384277)",25.04384995,55.12231064,Arabian Standard Time,240,GMT+04:00 Asia/Dubai
98,Knowledge Village,Starbucks,34346-97779,04-3616288,LS,"Block 18, Jumeirah Road, Beside Shape Wellness Spa","Block 18, Jumeirah Road",Beside Shape Wellness Spa,,Dubai,DU,AE,,"(25.1022624969482, 55.1624526977539)",25.1022625,55.1624527,Arabian Standard Time,240,GMT+04:00 Asia/Dubai
100,Health Care City Dubai,Starbucks,30954-99024,43624858,LS,"Dubai Health Care City D Block, Ground Floor",Dubai Health Care City D Block,Ground Floor,,Dubai,DU,AE,,"(25.2310905456543, 55.3264694213867)",25.23109055,55.32646942,Arabian Standard Time,240,GMT+04:00 Asia/Dubai
102,Emaar Town Center,Starbucks,31002-101076,43617373,LS,"Springs 1, Beside Spinneys Supermarket","Springs 1, Beside Spinneys Supermarket",,,Dubai,DU,AE,,"(25.0535469055176, 55.1719932556152)",25.05354691,55.17199326,Arabian Standard Time,240,GMT+04:00 Asia/Dubai
104,Jumeirah Beach Residence 3 P24a,Starbucks,32571-107873,44355728,LS,"Jumeirah Beach Residence, Opposite right side Dubai Hilton Hotel",Jumeirah Beach Residence,Opposite right side Dubai Hilton Hotel,,Dubai,DU,AE,,"(25.0749397277832, 55.1325187683105)",25.07493973,55.13251877,Arabian Standard Time,240,GMT+04:00 Asia/Dubai
105,DBX - Dubai Airport Terminal 3 C207,Starbucks,3169-123447,42203990,LS,"Terminal 3 Departures, east wing duty free area",Terminal 3 Departures,east wing duty free area,,Dubai,DU,AE,2525,"(25.2525806427002, 55.3540802001953)",25.25258064,55.3540802,Arabian Standard Time,240,GMT+04:00 Asia/Dubai
106,Arabian Centre,Starbucks,3173-122109,04 2845433,LS,"Plot 262-3104, Al Mizar First","Plot 262-3104, Al Mizar First",,,Dubai,DU,AE,3167,"(25.2566394805908, 55.4558486938477)",25.25663948,55.45584869,Arabian Standard Time,240,GMT+04:00 Asia/Dubai
107,Oasis Centre,Starbucks,3183-143827,43307155,LS,"Shaikh Zayed Road, Ground Floor",Shaikh Zayed Road,Ground Floor,,Dubai,DU,AE,,"(25.1690406799316, 55.2423286437988)",25.16904068,55.24232864,Arabian Standard Time,240,GMT+04:00 Asia/Dubai
108,Safeer Mall,Starbucks,3172-113584,07-2355921,LS,Umm-Al Qawain Ajman and Sharjah hwy,Umm-Al Qawain Ajman and Sharjah hwy,,,Ras Al Khaimah,RK,AE,,"(25.7480602264404, 55.9244499206543)",25.74806023,55.92444992,Arabian Standard Time,240,GMT+04:00 Asia/Dubai
109,Jumeirah Beach Residence 4 GM09,Starbucks,32457-106838,44233770,LS,"Jumeirah Beach Residence, Beside Marlin Furniture & opposite Ritz",Jumeirah Beach Residence,Beside Marlin Furniture & opposite Ritz,,Dubai,DU,AE,,"(25.0807399749756, 55.1389694213867)",25.08073997,55.13896942,Arabian Standard Time,240,GMT+04:00 Asia/Dubai
110,Jumeirah Beach Residence 6 GM10,Starbucks,32476-106835,44233862,LS,"Jumeirah Beach Residence, Opposite Sheraton Hotel Dubai",Jumeirah Beach Residence,Opposite Sheraton Hotel Dubai,,Dubai,DU,AE,,"(25.0718097686768, 55.1297492980957)",25.07180977,55.1297493,Arabian Standard Time,240,GMT+04:00 Asia/Dubai
111,Tawam Hospital,Starbucks,32640-131563,37677581,LS,"Al Ain Abu Dhabi Rd, Khalifa Bin Zayed, Al Makam Area","Al Ain Abu Dhabi Rd, Khalifa Bin Zayed",Al Makam Area,,Al Ain,AZ,AE,3167,"(24.1926898956299, 55.6504516601563)",24.1926899,55.65045166,Arabian Standard Time,240,GMT+04:00 Asia/Muscat
114,Blue Tower A,Starbucks,32029-110804,26429255,LS,"Street No.4, Muroor Road, Ground Floor","Street No.4, Muroor Road",Ground Floor,,Abu Dhabi,AZ,AE,,"(24.2148609161377, 55.7374610900879)",24.21486092,55.73746109,Arabian Standard Time,240,GMT+04:00 Asia/Muscat
116,The Residence Tower 1,Starbucks,32250-107405,44200636,LS,Down Town Burj,Down Town Burj,,,Dubai,DU,AE,,"(25.1923904418945, 55.271900177002)",25.19239044,55.27190018,Arabian Standard Time,240,GMT+04:00 Asia/Dubai
117,Khalidiya Mall,Starbucks,32239-100001,26354740,LS,"Street no. 26 of Khalidiya Area, Ground Floor, Shop No. A11",Street no. 26 of Khalidiya Area,"Ground Floor, Shop No. A11",,Abu Dhabi,AZ,AE,,"(24.4708385467529, 54.3524513244629)",24.47083855,54.35245132,Arabian Standard Time,240,GMT+04:00 Asia/Dubai
150,Florida 1,Starbucks,1285-140708,4342-9317,LS,"Florida 1, esquina Avenida Rivadavia","Florida 1, esquina Avenida Rivadavia",,,Buenos Aires,C,AR,C1005AAA,"(-34.6079788208008, -58.3749656677246)",-34.60797882,-58.37496567,Argentina Standard Time,-180,GMT-03:00 America/Argentina/Bu
118,Emaar Business Park,Starbucks,32117-116426,44224888,LS,"Dubai Marina after Mall of Emirates, 3rd Bldg,  Gr Floor, Near Main Entrance",Dubai Marina after Mall of Emirates,"3rd Bldg,  Gr Floor, Near Main Entrance",,Dubai,DU,AE,,"(25.0959091186523, 55.1690483093262)",25.09590912,55.16904831,SA Western Standard Time,-240,GMT+04:00 Asia/Dubai
120,Burj Dubai Business Park,Starbucks,32292-111724,44257991,LS,"Building 4, Ground Floor",Building 4,Ground Floor,,Dubai,DU,AE,,"(25.2029094696045, 55.2743797302246)",25.20290947,55.27437973,Arabian Standard Time,240,GMT+04:00 Asia/Dubai
121,21st Century Tower,Starbucks,32269-114734,04-3250028,LS,"Sheikh Zayed Road, Ground Floor",Sheikh Zayed Road,Ground Floor,,Dubai,DU,AE,,"(25.2111129760742, 55.2752227783203)",25.21111298,55.27522278,Arabian Standard Time,240,GMT+04:00 Asia/Dubai
123,Al Ghadeer Tower,Starbucks,32328-123449,04-3295676,LS,"Shaikh Zayed Road (In front of DIFC), Ground Floor",Shaikh Zayed Road (In front of DIFC),Ground Floor,,Dubai,DU,AE,58301,"(25.215539932251, 55.2789001464844)",25.21553993,55.27890015,Arabian Standard Time,240,GMT+04:00 Asia/Dubai
124,Old Town Amenity Building,Starbucks,32329-111864,44309436,LS,Burj Dubai,Burj Dubai,,,Dubai,DU,AE,,"(25.1924304962158, 55.2783966064453)",25.1924305,55.27839661,Arabian Standard Time,240,GMT+04:00 Asia/Dubai
125,JBR 1 Rimal Plaza,Starbucks,32523-106836,44355751,LS,"Jumeirah Beach Residence, Opposite of Dubai Hilton Hotel",Jumeirah Beach Residence,Opposite of Dubai Hilton Hotel,,Dubai,DU,AE,,"(25.0749397277832, 55.1326103210449)",25.07493973,55.13261032,Arabian Standard Time,240,GMT+04:00 Asia/Dubai
126,Movenpick,Starbucks,32714-122107,43374720,LS,"Street 19, Oud  Metha Area, Ground Floor","Street 19, Oud  Metha Area",Ground Floor,,Dubai,DU,AE,121223,"(25.2344703674316, 55.3114700317383)",25.23447037,55.31147003,Arabian Standard Time,240,GMT+04:00 Asia/Dubai
134,Dubai Mall LG 118,Starbucks,1801-136467,43398434,LS,"Burj Dubai Boulevard, Sheikh Zayed Rd, Shop LG 118","Burj Dubai Boulevard, Sheikh Zayed Rd",Shop LG 118,,Dubai,DU,AE,3167,"(25.1994724273682, 55.2753295898438)",25.19947243,55.27532959,Arabian Standard Time,240,GMT+04:00 Asia/Dubai
135,Park Place Showmax,Starbucks,6137-116711,43428399,LS,"Jumeirah Beach Road, in front of Jumeirah Beach Park",Jumeirah Beach Road,in front of Jumeirah Beach Park,,Dubai,DU,AE,,"(25.1965999603271, 55.2366714477539)",25.19659996,55.23667145,Arabian Standard Time,240,GMT+04:00 Asia/Dubai
136,Standard Chartered Building,Starbucks,32595-122105,26359275,LS,"Khalidiya St., Beside Union Cooperative Society",Khalidiya St.,Beside Union Cooperative Society,,Abu Dhabi,AZ,AE,3167,"(24.1879901885986, 55.687931060791)",24.18799019,55.68793106,Arabian Standard Time,240,GMT+04:00 Asia/Muscat
138,JBR 2 Rimal Marina,Starbucks,32425-106837,44233751,LS,"Jumeirah Beach Residence, front right corner of the Marina Tower",Jumeirah Beach Residence,front right corner of the Marina Tower,,Dubai,DU,AE,,"(25.0807399749756, 55.1390609741211)",25.08073997,55.13906097,Arabian Standard Time,240,GMT+04:00 Asia/Dubai
139,Dubai Marina Mall,Starbucks,1968-136466,44342660,LS,"Sheikh Zayed Road, Jumeirah Beach Residence Area",Sheikh Zayed Road,Jumeirah Beach Residence Area,,Dubai,DU,AE,3167,"(25.0755996704102, 55.1410484313965)",25.07559967,55.14104843,Arabian Standard Time,240,GMT+04:00 Asia/Dubai
140,Abu Dhabi University - Women's,Starbucks,3178-141407,25860492,LS,"Road Al ain Abu Dhabi Road number 22, Women side",Road Al ain Abu Dhabi Road number 22,Women side,,Abu Dhabi,AZ,AE,,"(24.3504238128662, 54.5699806213379)",24.35042381,54.56998062,Arabian Standard Time,240,GMT+04:00 Asia/Dubai
141,Abu Dhabi University - Men's,Starbucks,3886-141408,24433824,LS,"Muroor Street, Abu Dhabi Mall","Muroor Street, Abu Dhabi Mall",,,Abu Dhabi,AZ,AE,,"(24.4629192352295, 54.3517875671387)",24.46291924,54.35178757,Arabian Standard Time,240,GMT+04:00 Asia/Dubai
145,Deira City Center 4,Starbucks,31199-104340,04-2948442,LS,Deira,Deira,,,Dubai,DU,AE,,"(25.2532596588135, 55.3326187133789)",25.25325966,55.33261871,Arabian Standard Time,240,GMT+04:00 Asia/Dubai
160,Mariahilfer Strasse,Starbucks,40204-76700,43 1 3366332505,CO,Mariahilfer Strasse 23-25,Mariahilfer Strasse 23-25,,,Wien,9,AT,1060,"(48.2007064819336, 16.3586349487305)",48.20070648,16.35863495,W. Europe Standard Time,60,GMT+1:00 Europe/Vienna
161,Neubaugasse,Starbucks,40206-77760,43 1 3366332507,CO,Neubaugasse 4,Neubaugasse 4,,,Wien,9,AT,1070,"(48.1986541748047, 16.3500518798828)",48.19865417,16.35005188,W. Europe Standard Time,60,GMT+1:00 Europe/Vienna
147,Panamericano,Starbucks,4034-136938,5777-9501,LS,Melian Avenida 4602,Melian Avenida 4602,,,Buenos Aires,C,AR,C1430EZT,"(-34.5473480224609, -58.4859466552734)",-34.54734802,-58.48594666,Argentina Standard Time,-180,GMT-03:00 America/Argentina/Bu
148,Abasto Shopping Center,Starbucks,1279-139527,4861-1730,LS,Corrientes Avenida 3247,Corrientes Avenida 3247,,,Buenos Aires,C,AR,C1193AAE,"(-34.6039123535156, -58.4109382629395)",-34.60391235,-58.41093826,Argentina Standard Time,-180,GMT-03:00 America/Argentina/Bu
149,Panamericano II,Starbucks,3525-142748,5777-9501,LS,Melian Avenida 4602,Melian Avenida 4602,,,Buenos Aires,C,AR,C1430EZT,"(-34.5473480224609, -58.4858589172363)",-34.54734802,-58.48585892,Argentina Standard Time,-180,GMT-03:00 America/Argentina/Bu
151,Alto Palermo,Starbucks,32499-133544,5777-8114,LS,"Av Coronel Diaz 3360, (esq. Arenales)","Av Coronel Diaz 3360, (esq. Arenales)",,,Buenos Aires,C,AR,C1425BGI,"(-34.588062286377, -58.409782409668)",-34.58806229,-58.40978241,Argentina Standard Time,-180,GMT-03:00 America/Argentina/Bu
152,Malabia,Starbucks,1290-142064,4831-9937,LS,Malabia 1720,Malabia 1720,,,Buenos Aires,C,AR,C1414DMJ,"(-34.5898361206055, -58.425609588623)",-34.58983612,-58.42560959,Argentina Standard Time,-180,GMT-03:00 America/Argentina/Bu
153,Elcano,Starbucks,1284-140707,4554-7122,LS,Elcano 3179,Elcano 3179,,,Buenos Aires,C,AR,C1427CIV,"(-34.5729331970215, -58.4593734741211)",-34.5729332,-58.45937347,Argentina Standard Time,-180,GMT-03:00 America/Argentina/Bu
154,Viamonte,Starbucks,1277-139525,5258-0314,LS,Callao 702 (esq. Viamonte),Callao 702 (esq. Viamonte),,,Buenos Aires,C,AR,C1023AAN,"(-34.6007308959961, -58.3914375305176)",-34.6007309,-58.39143753,Argentina Standard Time,-180,GMT-03:00 America/Argentina/Bu
155,Federico Lacroze,Starbucks,1270-136935,4899-1505,LS,Av Federico Lacroze 2301 (esq 3 de Febr),Av Federico Lacroze 2301 (esq 3 de Febr),,,Buenos Aires,C,AR,C1426CPI,"(-34.5688133239746, -58.4437446594238)",-34.56881332,-58.44374466,Argentina Standard Time,-180,GMT-03:00 America/Argentina/Bu
156,Defensores,Starbucks,3633-142525,4701-9317,LS,"Av. Comodor Martin Rivadavia 1560, esq. Avenida del Libertador",Av. Comodor Martin Rivadavia 1560,esq. Avenida del Libertador,,Buenos Aires,C,AR,C1429DBR,"(-34.5414390563965, -58.4630432128906)",-34.54143906,-58.46304321,Argentina Standard Time,-180,GMT-03:00 America/Argentina/Bu
164,Millennium City,Starbucks,40202-69420,43 1 3366332502,CO,Handelskai 94-96,Handelskai 94-96,,,Wien,9,AT,1200,"(48.2403450012207, 16.3869857788086)",48.240345,16.38698578,W. Europe Standard Time,60,GMT+1:00 Europe/Vienna
168,Karlsplatzpassage,Starbucks,32492-120288,4.31337E+12,CO,Karlsplatz Hauptpassage,Karlsplatz Hauptpassage,,,Wien,9,AT,1010,"(48.2007865905762, 16.3687648773193)",48.20078659,16.36876488,W. Europe Standard Time,60,GMT+1:00 Europe/Vienna
169,Rotenturmstrasse,Starbucks,31077-103980,43 1 3366332515,CO,Rotenturmstrasse 22,Rotenturmstrasse 22,,,Wien,9,AT,1010,"(48.2112998962402, 16.3760929107666)",48.2112999,16.37609291,W. Europe Standard Time,60,GMT+1:00 Europe/Vienna
170,Michaelerplatz,Starbucks,40213-99693,43 1 3366332514,CO,Reitschulgasse 4,Reitschulgasse 4,,,Wien,9,AT,1010,"(48.2076263427734, 16.367094039917)",48.20762634,16.36709404,W. Europe Standard Time,60,GMT+1:00 Europe/Vienna
171,AKH Allgemeines Krankenhaus,Starbucks,40212-96779,43 1 3366332512,CO,Waehringer Guertel 18-20,Waehringer Guertel 18-20,,,Wien,9,AT,1090,"(48.2204093933105, 16.3474731445313)",48.22040939,16.34747314,W. Europe Standard Time,60,GMT+1:00 Europe/Vienna
172,Invalidenstrasse,Starbucks,32495-133884,43 1 3366332521,CO,Invalidenstrasse 11,Invalidenstrasse 11,,,Wien,9,AT,1030,"(48.2058181762695, 16.3858470916748)",48.20581818,16.38584709,W. Europe Standard Time,60,GMT+1:00 Europe/Vienna
270,BRU - Departure Hall,Starbucks,32639-137287,+32 2 719 77 00,LS,"Departure Hall, Brussels Airport - BRU",Departure Hall,,Brussels Airport - BRU,Zaventem,VLG,BE,B-1930,"(50.8973693847656, 4.48509979248047)",50.89736938,4.485099792,Romance Standard Time,60,GMT+1:00 Europe/Brussels
274,حديقة مركز الدبلوماسي,Starbucks,1349-112145,17531728,LS,"المنطقة الدبلوماسية, ق: 317, طريق: 1704, بجانب مبنى التأمينات الاجتماعية (منظمة التأمين الاجتماعي), محل رقم :8, مبنى 263","المنطقة الدبلوماسية, ق: 317, طريق: 1704, بجانب مبنى التأمينات الاجتماعية (منظمة التأمين الاجتماعي)",محل رقم :8,مبنى 263,المنامة,13,BH,,"(26.2416896820068, 50.5879783630371)",26.24168968,50.58797836,Arab Standard Time,180,GMT+000000 Asia/Bahrain
276,مطار البحرين بوابة 16,Starbucks,3639-145205,17339537,LS,"ق: 224, طريق 2404, مبنى ,212,, بوابة 16, مطار البحرين","ق: 224, طريق 2404, مبنى ,212,",بوابة 16,مطار البحرين,المنامة,15,BH,,"(26.2695999145508, 50.6260795593262)",26.26959991,50.62607956,Arab Standard Time,180,GMT+000000 Asia/Bahrain
277,مجمع السيف,Starbucks,34218-27369,17583033,LS,"البحرين, منطقة السيف,  ستاربكس مجمع السيف. ص.ب 26910,, محل رقم :110, مجمع السيف","البحرين, منطقة السيف,  ستاربكس مجمع السيف. ص.ب 26910,",محل رقم :110,مجمع السيف,المنامة,13,BH,,"(26.2325305938721, 50.5364418029785)",26.23253059,50.5364418,Arab Standard Time,180,GMT+000000 Asia/Bahrain
278,باديز,Starbucks,34286-79020,17721641,LS,"المنامة\ بو عاشيرة بالقرب من الجزيرة سوبر ماركت, ق: 332,طريق: 33, محل رقم :6, مركز الجزيرة للتسويق","المنامة\ بو عاشيرة بالقرب من الجزيرة سوبر ماركت, ق: 332,طريق: 33",محل رقم :6,مركز الجزيرة للتسويق,الزينج,13,BH,,"(26.2063999176025, 50.5761909484863)",26.20639992,50.57619095,Arab Standard Time,180,GMT+000000 Asia/Bahrain
279,مجمع البحرين,Starbucks,34234-33223,17556050,LS,"مجمع البحرين, ق:410, طريق: 28, مبنى 184, محل رقم :136, مجمع البحرين","مجمع البحرين, ق:410, طريق: 28, مبنى 184",محل رقم :136,مجمع البحرين,البحرين,13,BH,,"(26.2298202514648, 50.5371704101563)",26.22982025,50.53717041,Arab Standard Time,180,GMT+000000 Asia/Bahrain
280,ستراند بلازا,Starbucks,34324-95973,17723428,LS,"الجفير, نادي المنامة ,طريق 4021, وحدات 493 و493A, ستراند بلازا مبنى 340","الجفير, نادي المنامة ,طريق 4021",وحدات 493 و493A,ستراند بلازا مبنى 340,البحرين,13,BH,,"(26.2116508483887, 50.6077308654785)",26.21165085,50.60773087,Arab Standard Time,180,GMT+000000 Asia/Bahrain
282,سند (يم يم),Starbucks,34302-86720,17624154,LS,"سند, ق: 745, طريق:4566, مبنى:2206 محل رقم. 23, محل رقم :23, مبنى يم يم3","سند, ق: 745, طريق:4566, مبنى:2206 محل رقم. 23",محل رقم :23,مبنى يم يم3,سند,14,BH,,"(26.1446895599365, 50.5790214538574)",26.14468956,50.57902145,Arab Standard Time,180,GMT+000000 Asia/Bahrain
284,"البحرين, سيتي سنتر",Starbucks,32717-122090,17179578,LS,"الجانب الغربي , الدور الغربي, منطقة السيف, البحرين, مجمع سيتي سنتر","الجانب الغربي , الدور الغربي",منطقة السيف,"البحرين, مجمع سيتي سنتر",المنامة,13,BH,199,"(26.234920501709, 50.5546684265137)",26.2349205,50.55466843,Arab Standard Time,180,GMT+000000 Asia/Bahrain
285,"بحرين, سيتي سنتر, دبنهامز",Starbucks,32716-134986,17179847,LS,"الدور الأرضي (بداخل دبنهامز), منطقة السيف, البحرين, مجمع سيتي سنتر",الدور الأرضي (بداخل دبنهامز),منطقة السيف,"البحرين, مجمع سيتي سنتر",المنامة,13,BH,199,"(26.234920501709, 50.5545806884766)",26.2349205,50.55458069,Arab Standard Time,180,GMT+000000 Asia/Bahrain
286,مركز المنامة,Starbucks,34345-98401,17214404,LS,"المنامة , مركز المنامة الحكومي,طريق : 383 ، بلوك : 316 الآفينيوز, محل رقم :0, مبنى 118","المنامة , مركز المنامة الحكومي,طريق : 383 ، بلوك : 316 الآفينيوز",محل رقم :0,مبنى 118,المنامة,13,BH,,"(26.2365798950195, 50.5771598815918)",26.2365799,50.57715988,Arab Standard Time,180,GMT+000000 Asia/Bahrain
321,Brava - Davie & Seymour,Starbucks,4579-96729,604-622-5558,CO,"605 Davie Street, Brava",605 Davie Street,,Brava,Vancouver,BC,CA,V6B 2G6,"(49.2767753601074, -123.125228881836)",49.27677536,-123.1252289,Pacific Standard Time,-480,GMT-08:00 America/Vancouver
322,Mission Creek Plaza-Kelowna,Starbucks,4641-99593,250-764-2243,CO,"3957 Lakeshore Road, 101, Lakeshore Plaza",3957 Lakeshore Road,101,Lakeshore Plaza,Kelowna,BC,CA,V1W 1V3,"(49.8413734436035, -119.487571716309)",49.84137344,-119.4875717,Pacific Standard Time,-480,GMT-08:00 America/Vancouver
323,King & Brant,Starbucks,4636-99652,416-596-0101,CO,527-529 King Street West,527-529 King Street West,,,Toronto,ON,CA,M5V 1K4,"(43.6446495056152, -79.3982620239258)",43.64464951,-79.39826202,Eastern Standard Time,-300,GMT-05:00 America/Toronto
271,Burgas Plaza Mall,Starbucks,1460-137881,,JV,Stefan Stambolov Blvd & Transportna Str,Stefan Stambolov Blvd & Transportna Str,,,Burgas,2,BG,,"(42.4245414733887, 25.6179351806641)",42.42454147,25.61793518,FLE Standard Time,120,GMT+2:00 Europe/Sofia
272,Sofia Gurko,Starbucks,1603-141846,,JV,Vas Lefski Bulvd and Gurko street,Vas Lefski Bulvd and Gurko street,,,Sofia,23,BG,,"(42.697624206543, 23.3222846984863)",42.69762421,23.3222847,FLE Standard Time,120,GMT+2:00 Europe/Sofia
273,Nansen & Levski,Starbucks,1370-137876,,JV,V Lefski Blvd & Frityof Nansen,V Lefski Blvd & Frityof Nansen,,,Sofia,23,BG,,"(42.6872749328613, 23.3214740753174)",42.68727493,23.32147408,FLE Standard Time,120,GMT+2:00 Europe/Sofia
313,Harbour Bay,Starbucks,31288-104391,,LS,East Bay St. (Eastern Rd & Fowler St),East Bay St. (Eastern Rd & Fowler St),,,Nassau,NS,BS,,"(25.0740795135498, -77.3163528442383)",25.07407951,-77.31635284,Eastern Standard Time,-300,GMT-05:00 America/Nassau
315,Palmdale RCA Building,Starbucks,31197-102257,,LS,Rosetta St. Fifth Terrace & Patton St,Rosetta St. Fifth Terrace & Patton St,,,Nassau,NS,BS,,"(25.0678596496582, -77.3279266357422)",25.06785965,-77.32792664,Eastern Standard Time,-300,GMT-05:00 America/Nassau
317,Reef Atlantis,Starbucks,32202-107597,,LS,Paradise Island,Paradise Island,,,Nassau,NS,BS,,"(25.0859508514404, -77.3277587890625)",25.08595085,-77.32775879,Eastern Standard Time,-300,GMT-05:00 America/Nassau
320,Marina Village at Atlantis,Starbucks,30656-99475,,LS,"Marina Village, 9",Marina Village,9,,Nassau,NS,BS,,"(25.0825290679932, -77.3192367553711)",25.08252907,-77.31923676,Eastern Standard Time,-300,GMT-05:00 America/Nassau
326,Safeway - Nelson #133,Starbucks,74845-100503,250-352-9710,LS,211 Anderson Street,211 Anderson Street,,,Nelson,BC,CA,V1L 3X8,"(49.5001525878906, -117.283271789551)",49.50015259,-117.2832718,Pacific Standard Time,-480,GMT-08:00 America/Vancouver
329,Arbutus & Valley,Starbucks,4633-99432,604-261-5447,CO,4635 Arbutus Street,4635 Arbutus Street,,,Vancouver,BC,CA,V6J 4A3,"(49.2447738647461, -123.15389251709)",49.24477386,-123.1538925,Pacific Standard Time,-480,GMT-08:00 America/Vancouver
330,Safeway - Brandon # 604,Starbucks,74896-100388,204-726-8014,LS,921 18th St NE,921 18th St NE,,,Brandon,MB,CA,R7A 6T2,"(49.8355751037598, -99.9616622924805)",49.8355751,-99.96166229,Central Standard Time,-360,GMT-06:00 America/Winnipeg
331,Cambie St & 39th Ave,Starbucks,4644-99427,604-321-1042,CO,5504 Cambie Street,5504 Cambie Street,,,Vancouver,BC,CA,V5Z 3A2,"(49.235237121582, -123.115715026855)",49.23523712,-123.115715,Pacific Standard Time,-480,GMT-08:00 America/Vancouver
333,Dobbin Rd - Westbank TC,Starbucks,4659-100573,250-707-1720,CO,"2475 Dobbin Road, 30, Westbank Town Centre",2475 Dobbin Road,30,Westbank Town Centre,West Kelowna,BC,CA,V4T 2B9,"(49.8282318115234, -119.628631591797)",49.82823181,-119.6286316,Pacific Standard Time,-480,GMT-08:00 America/Vancouver
334,Save-on-Foods - Fort McMurray,Starbucks,74933-102399,780-791-3995,LS,131 Signal Rd,131 Signal Rd,,,Fort McMurray,AB,CA,T9H 4N6,"(56.730354309082, -111.426780700684)",56.73035431,-111.4267807,Mountain Standard Time,-420,GMT-07:00 America/Edmonton
335,3035 Argentia Rd,Starbucks,4665-100880,905-785-7667,CO,"3035 Argentia Road, unIT 7",3035 Argentia Road,unIT 7,,Mississauga,ON,CA,L5N 8P7,"(43.5956649780273, -79.7863235473633)",43.59566498,-79.78632355,Eastern Standard Time,-300,GMT-05:00 America/Toronto
336,West Lethbridge Towne Centre,Starbucks,4628-97843,403-328-3613,CO,"550 University Dr West, West Lethbridge Towne Centre",550 University Dr West,,West Lethbridge Towne Centre,Lethbridge,AB,CA,T1J 4T3,"(49.6927337646484, -112.891792297363)",49.69273376,-112.8917923,Mountain Standard Time,-420,GMT-07:00 America/Edmonton
337,631 Commissioners Rd E,Starbucks,4674-100799,519-649-1444,CO,631 Commissioners Road East,631 Commissioners Road East,,,London,ON,CA,N6C 2V1,"(42.957763671875, -81.2328872680664)",42.95776367,-81.23288727,Eastern Standard Time,-300,GMT-05:00 America/Toronto
338,Wolf Willow,Starbucks,4622-97838,780-444-4780,CO,"6873 170th St. NW, Wolf Willow Shopping Centre",6873 170th St. NW,,Wolf Willow Shopping Centre,Edmonton,AB,CA,T5T 4W5,"(53.5041351318359, -113.61474609375)",53.50413513,-113.6147461,Mountain Standard Time,-420,GMT-07:00 America/Edmonton
341,Atrium 1 - 5th Ave & 8th St,Starbucks,4735-104203,403-237-9209,CO,"839 5Th Avenue SW, Atruim I",839 5Th Avenue SW,,Atruim I,Calgary,AB,CA,T2P 3C8,"(51.0487403869629, -114.080879211426)",51.04874039,-114.0808792,Mountain Standard Time,-420,GMT-07:00 America/Edmonton
344,Matrix Hotel,Starbucks,4857-108302,(780) 441-1099,CO,10001 - 107th Street,10001 - 107th Street,,,Edmonton,AB,CA,T5J 1J1,"(53.5390281677246, -113.504386901855)",53.53902817,-113.5043869,Mountain Standard Time,-420,GMT-07:00 America/Edmonton
345,52St & McIvor Blvd SE,Starbucks,4853-107841,(403)257-3882,CO,"15566 McIvor Boulevard, 500, Copperfield Corner",15566 McIvor Boulevard,500,Copperfield Corner,Calgary,AB,CA,T2Z 4Y2,"(50.9132423400879, -113.95036315918)",50.91324234,-113.9503632,Mountain Standard Time,-420,GMT-07:00 America/Edmonton
346,Hull's Corner-Jacklin & Langford,Starbucks,4658-100562,250-478-7878,CO,"2972 Jacklin Road, Hull's Corner",2972 Jacklin Road,,Hull's Corner,Langford,BC,CA,V9B 0A3,"(48.4423484802246, -123.510955810547)",48.44234848,-123.5109558,Pacific Standard Time,-480,GMT-08:00 America/Vancouver
347,Tsain-Ko Village Sechelt,Starbucks,4673-99704,604-740-8144,CO,"5500 Sunshine Coast Highway, Tsain-Ko Village",5500 Sunshine Coast Highway,,Tsain-Ko Village,Sechelt,BC,CA,V0N 3A1,"(49.4739837646484, -123.747566223145)",49.47398376,-123.7475662,Pacific Standard Time,-480,GMT-08:00 America/Vancouver
349,Red Deer Village,Starbucks,4631-97848,403-340-3145,CO,"6380 - 50th Ave, 400, Red Deer Village",6380 - 50th Ave,400,Red Deer Village,Red Deer,AB,CA,T4N 4C6,"(52.2880592346191, -113.814445495605)",52.28805923,-113.8144455,Mountain Standard Time,-420,GMT-07:00 America/Edmonton
351,Sunridge Mall - Level 1,Starbucks,4725-99845,403-233-7103,CO,"2525 36th St. N.E., 160",2525 36th St. N.E.,160,,Calgary,AB,CA,T1Y 5T4,"(51.0739479064941, -113.984527587891)",51.07394791,-113.9845276,Mountain Standard Time,-420,GMT-07:00 America/Edmonton
354,599 Taylor Kidd Blvd,Starbucks,4694-102072,613-634-1509,CO,"599 Taylor Kidd Blvd, Unit 6",599 Taylor Kidd Blvd,Unit 6,,Kingston,ON,CA,K7M 0A2,"(44.2504081726074, -76.5673141479492)",44.25040817,-76.56731415,Eastern Standard Time,-300,GMT-05:00 America/Toronto
355,99th Ave & 105 Street,Starbucks,4672-100582,780-429-9661,CO,"10504 99 Avenue, 101",10504 99 Avenue,101,,Edmonton,AB,CA,T5K 1B2,"(53.5374526977539, -113.501426696777)",53.5374527,-113.5014267,Mountain Standard Time,-420,GMT-07:00 America/Edmonton
356,Tandem - Dawson & Gilmore,Starbucks,4660-100750,604-299-2820,CO,"4122 Dawson Street, The Tandem",4122 Dawson Street,,The Tandem,Burnaby,BC,CA,V5C 0A4,"(49.2642860412598, -123.01375579834)",49.26428604,-123.0137558,Pacific Standard Time,-480,GMT-08:00 America/Vancouver
357,Crystal Lodge,Starbucks,4617-98138,604-905-5560,CO,"4154 Village Green, Unit 10, Crystal Lodge",4154 Village Green,Unit 10,Crystal Lodge,Whistler,BC,CA,V0N 1B4,"(50.1142616271973, -122.955917358398)",50.11426163,-122.9559174,Pacific Standard Time,-480,GMT-08:00 America/Vancouver
359,Montreux-2nd & Yukon,Starbucks,4692-101458,604-708-1507,CO,2035 Yukon St,2035 Yukon St,,,Vancouver,BC,CA,V5Y 3W3,"(49.2672882080078, -123.112945556641)",49.26728821,-123.1129456,Pacific Standard Time,-480,GMT-08:00 America/Vancouver
360,Trans Can Hwy & 13th Ave SE,Starbucks,4677-101293,403-528-8932,CO,1296 Trans Canada Hwy SE,1296 Trans Canada Hwy SE,,,Medicine Hat,AB,CA,T1B 1J5,"(50.006893157959, -110.664939880371)",50.00689316,-110.6649399,Mountain Standard Time,-420,GMT-07:00 America/Edmonton
362,Eagle Ridge - Lansdowne & Guildford,Starbucks,4655-100369,604-464-1408,CO,1192 Lansdowne Drive,1192 Lansdowne Drive,,,Coquitlam,BC,CA,V3E 1J7,"(49.2837600708008, -122.810707092285)",49.28376007,-122.8107071,Pacific Standard Time,-480,GMT-08:00 America/Vancouver
363,Steveston - No. 1 & Bayview,Starbucks,4687-100789,604-204-0288,CO,"4010 Bayview Street, 105, Imperial Landing",4010 Bayview Street,105,Imperial Landing,Richmond,BC,CA,V7E 6T5,"(49.1240196228027, -123.180854797363)",49.12401962,-123.1808548,Pacific Standard Time,-480,GMT-08:00 America/Vancouver
364,King & Shaw,Starbucks,4646-98483,416-979-1953,CO,"1005 King St W, Unit 7",1005 King St W,Unit 7,,Toronto,ON,CA,M6G 1B9,"(43.6412811279297, -79.4147644042969)",43.64128113,-79.4147644,Eastern Standard Time,-300,GMT-05:00 America/Toronto
365,949 Fort William Road,Starbucks,4621-95876,807-473-4226,CO,"949 Fort William Road, D8, Thunder Bay Centre",949 Fort William Road,D8,Thunder Bay Centre,Thunder Bay,ON,CA,P7B 3A6,"(48.4019927978516, -89.2411727905273)",48.4019928,-89.24117279,Eastern Standard Time,-300,GMT-05:00 America/Toronto
369,Columbia St & 3rd Ave - Kamloops,Starbucks,4632-98607,250-828-1357,CO,300 Columbia Street,300 Columbia Street,,,Kamloops,BC,CA,V2C 6L1,"(50.6717185974121, -120.334136962891)",50.6717186,-120.334137,Pacific Standard Time,-480,GMT-08:00 America/Vancouver
370,Suncor main floor,Starbucks,4587-96728,4032940610,CO,"111 5th Ave SW, Petro Canada Centre",111 5th Ave SW,,Petro Canada Centre,Calgary,AB,CA,T2P 3Y6,"(51.048210144043, -114.063568115234)",51.04821014,-114.0635681,Mountain Standard Time,-420,GMT-07:00 America/Edmonton
373,247 King St N,Starbucks,4647-99935,519-886-0101,CO,247 King Street North,247 King Street North,,,Waterloo,ON,CA,N2J 2Y8,"(43.4763603210449, -80.5251998901367)",43.47636032,-80.52519989,Eastern Standard Time,-300,GMT-05:00 America/Toronto
376,West Central & 15th Avenue - PG,Starbucks,4590-97211,250-561-2532,CO,"1477 West Central, City Gate Centre",1477 West Central,,City Gate Centre,Prince George,BC,CA,V2M 5S5,"(53.9109230041504, -122.782936096191)",53.910923,-122.7829361,Pacific Standard Time,-480,GMT-08:00 America/Vancouver
378,242 Queen St S,Starbucks,4635-99050,905-286-9494,CO,242 Queen Street South,242 Queen Street South,,,Mississauga,ON,CA,L5M 1L5,"(43.5802574157715, -79.7119979858398)",43.58025742,-79.71199799,Eastern Standard Time,-300,GMT-05:00 America/Toronto
379,7787 Yonge St,Starbucks,4645-99110,905-762-9889,CO,"7787 Yonge Street, Thornhill Mews",7787 Yonge Street,,Thornhill Mews,Thornhill,ON,CA,L3T 7L2,"(43.8171043395996, -79.4243011474609)",43.81710434,-79.42430115,Eastern Standard Time,-300,GMT-05:00 America/Toronto
324,Safeway - Edmonton #881,Starbucks,74878-100505,780-483-3255,LS,15007 Stoney plain Rd NW,15007 Stoney plain Rd NW,,,Edmonton,AB,CA,T5P 4W1,"(53.5401573181152, -113.57886505127)",53.54015732,-113.5788651,Mountain Standard Time,-420,GMT-07:00 America/Edmonton
325,Safeway - Vancouver #84,Starbucks,74841-100500,604-493-0090,LS,3410 Kingsway Street,3410 Kingsway Street,,,vancouver,BC,CA,V5R 5L4,"(49.2320594787598, -123.032936096191)",49.23205948,-123.0329361,Pacific Standard Time,-480,GMT-08:00 America/Vancouver
327,Safeway - Vancouver #189,Starbucks,74843-99493,6048730225,LS,1780 E Broadway,1780 E Broadway,,,Vancouver,BC,CA,V5N 1W3,"(49.2619247436523, -123.068222045898)",49.26192474,-123.068222,Pacific Standard Time,-480,GMT-08:00 America/Vancouver
332,Safeway - Burnaby #121,Starbucks,74839-99492,604-420-3420,LS,9855 Austin Rd,9855 Austin Rd,,,Burnaby,BC,CA,V3J 1N4,"(49.2516479492188, -122.896018981934)",49.25164795,-122.896019,Pacific Standard Time,-480,GMT-08:00 America/Vancouver
339,Safeway - Edmonton #838,Starbucks,74935-102407,780-451-1860,LS,"601, 111 Ave. & Groat Rd","601, 111 Ave. & Groat Rd",,,Edmonton,AB,CA,T5M 3L7,"(53.5595512390137, -113.553619384766)",53.55955124,-113.5536194,Mountain Standard Time,-420,GMT-07:00 America/Edmonton
350,Safeway - Calgary #276,Starbucks,79566-103261,403-236-1210,LS,7740 18th Street SE,7740 18th Street SE,,,Calgary,AB,CA,T2C 2N5,"(50.9845085144043, -114.014587402344)",50.98450851,-114.0145874,Mountain Standard Time,-420,GMT-07:00 America/Edmonton
352,Safeway - Cranbrook #2271,Starbucks,74943-103267,,LS,1200 Baker Street,1200 Baker Street,,,Cranbrook,BC,CA,V1C 1A8,"(49.5121765136719, -115.765228271484)",49.51217651,-115.7652283,US Mountain Standard Time,-420,GMT+000000 America/Dawson_Cree
353,Safeway - Edmonton #808,Starbucks,74961-102938,,LS,8118 118th Avenue NW,8118 118th Avenue NW,,,Edmonton,AB,CA,T5B 0S1,"(53.5713386535645, -113.466773986816)",53.57133865,-113.466774,Mountain Standard Time,-420,GMT-07:00 America/Edmonton
361,Safeway - Calgary #2730,Starbucks,74854-100260,,LS,Richmond Road & 37th St,Richmond Road & 37th St,,,Calgary,AB,CA,T2J 6S1,"(51.0207481384277, -114.141998291016)",51.02074814,-114.1419983,Mountain Standard Time,-420,GMT-07:00 America/Edmonton
366,Safeway-Langley #59,Starbucks,74754-97377,6045333291,LS,6153 200th St,6153 200th St,,,Langley,BC,CA,V2Y 1A2,"(49.1147575378418, -122.670707702637)",49.11475754,-122.6707077,Pacific Standard Time,-480,GMT-08:00 America/Vancouver
368,Safeway Fort Saskatchewan #846,Starbucks,74830-100386,780-998-4065,LS,Hwy-15 & 86th Avenue,Hwy-15 & 86th Avenue,,,Fort Saskatchewan,AB,CA,T8L 4P4,"(53.6933288574219, -113.212646484375)",53.69332886,-113.2126465,Mountain Standard Time,-420,GMT-07:00 America/Edmonton
371,Safeway - Vancouver #110,Starbucks,74820-99490,604-263-2575,LS,650 W 41st Ave,650 W 41st Ave,,,Vancouver,BC,CA,V5Z 2M9,"(49.232063293457, -123.11971282959)",49.23206329,-123.1197128,Pacific Standard Time,-480,GMT-08:00 America/Vancouver
374,Safeway-Chilliwack #193,Starbucks,74844-96803,604-858-8115,LS,45610 Luckakuck Way,45610 Luckakuck Way,,,Chilliwack,BC,CA,V2R 1A2,"(49.1396255493164, -121.963180541992)",49.13962555,-121.9631805,Pacific Standard Time,-480,GMT-08:00 America/Vancouver
375,Safeway - Edmonton #816,Starbucks,74842-99498,780-486-4242,LS,9710 170th Street NW,9710 170th Street NW,,,Edmonton,AB,CA,T5T 5L5,"(53.5343246459961, -113.617919921875)",53.53432465,-113.6179199,Mountain Standard Time,-420,GMT-07:00 America/Edmonton
381,Corral Centre,Starbucks,4594-97209,204-727-2119,CO,"821 18th St N, Coral Centre",821 18th St N,,Coral Centre,Brandon,MB,CA,R7A 7S1,"(49.8652458190918, -99.9612731933594)",49.86524582,-99.96127319,Central Standard Time,-360,GMT-06:00 America/Winnipeg
382,Southglen,Starbucks,4699-102549,204-253-0401,CO,"726 St. Anne's Road, 104, Bldg J, Southglen Shopping Centre",726 St. Anne's Road,"104, Bldg J",Southglen Shopping Centre,Winnipeg,MB,CA,R2N 0A2,"(49.8235244750977, -97.0836486816406)",49.82352448,-97.08364868,Central Standard Time,-360,GMT-06:00 America/Winnipeg
383,Broadway Ave & 10 Street E,Starbucks,4639-99653,306-651-7211,CO,737 Broadway Avenue,737 Broadway Avenue,,,Saskatoon,SK,CA,S7N 1B3,"(52.1179504394531, -106.656387329102)",52.11795044,-106.6563873,Canada Central Standard Time,-360,GMT-06:00 America/Regina
384,Hwy 97 at Leathead-Kelowna,Starbucks,4640-99641,250-860-7632,CO,2709 Highway 97 N,2709 Highway 97 N,,,Kelowna,BC,CA,V1X 4J8,"(49.8957443237305, -119.413246154785)",49.89574432,-119.4132462,Pacific Standard Time,-480,GMT-08:00 America/Vancouver
385,23 Ave & 111 St,Starbucks,4630-99174,780-461-4708,CO,"2309 - 111th Street, Heritage",2309 - 111th Street,,Heritage,Edmonton,AB,CA,T6J 5E5,"(53.4556007385254, -113.515472412109)",53.45560074,-113.5154724,Mountain Standard Time,-420,GMT-07:00 America/Edmonton
386,121 Division Street,Starbucks,4648-99931,613-548-4747,CO,121 Division Street,121 Division Street,,,Kingston,ON,CA,K7L 3M5,"(44.2314758300781, -76.4926376342773)",44.23147583,-76.49263763,Eastern Standard Time,-300,GMT-05:00 America/Toronto
388,Safeway - Wetaskiwin #862,Starbucks,79531-103262,,LS,3901 56th Street,3901 56th Street,,,Wetaskiwin,AB,CA,T9A 2B1,"(52.9587936401367, -113.39005279541)",52.95879364,-113.3900528,Mountain Standard Time,-420,GMT-07:00 America/Edmonton
389,Safeway-Richmond #191,Starbucks,79539-97379,,LS,8671 # Road,8671 # Road,,,Richmond,BC,CA,V7C 1V2,"(49.1494750976563, -123.182312011719)",49.1494751,-123.182312,Pacific Standard Time,-480,GMT-08:00 America/Vancouver
391,5067 Dixie Rd,Starbucks,4657-100002,905-614-1731,CO,5067 Dixie Road,5067 Dixie Road,,,Mississauga,ON,CA,L4W 5S6,"(43.6368942260742, -79.6210632324219)",43.63689423,-79.62106323,Eastern Standard Time,-300,GMT-05:00 America/Toronto
392,Bloor & Ellis,Starbucks,4702-102446,416-761-9402,CO,1997 Bloor St W,1997 Bloor St W,,,Toronto,ON,CA,M6S 1M4,"(43.6522064208984, -79.4709243774414)",43.65220642,-79.47092438,Eastern Standard Time,-300,GMT-05:00 America/Toronto
393,1011 Upper Middle Rd E,Starbucks,4716-103129,905-842-2629,CO,"1011 Upper Middle Road East, Unit C-14W",1011 Upper Middle Road East,Unit C-14W,,Oakville,ON,CA,L6H 4L5,"(43.4830551147461, -79.696174621582)",43.48305511,-79.69617462,Eastern Standard Time,-300,GMT-05:00 America/Toronto
394,Safeway-Winnipeg #359,Starbucks,70329-139744,,LS,1610 Ness Avenue,1610 Ness Avenue,,,Winnipeg,MB,CA,R3J 3X3,"(49.8823089599609, -97.2053375244141)",49.88230896,-97.20533752,Central Standard Time,-360,GMT-06:00 America/Winnipeg
395,University of Alberta - Cameron Lib,Starbucks,5015-145348,,LS,89 Ave NW & 116 Street NW,89 Ave NW & 116 Street NW,,,Edmonton,AB,CA,T6G 2H6,"(53.5247688293457, -113.530616760254)",53.52476883,-113.5306168,Mountain Standard Time,-420,GMT-07:00 America/Edmonton
396,Longos Aurora,Starbucks,5023-145349,,LS,650 Wellington St E,650 Wellington St E,,,Aurora,ON,CA,L4G 0K3,"(44.0071983337402, -79.4442977905273)",44.00719833,-79.44429779,Eastern Standard Time,-300,GMT-05:00 America/Toronto
398,Safeway-Calgary #874,Starbucks,4134-141704,,LS,1450 85 Street SW,1450 85 Street SW,,,Calgary,AB,CA,T3H 4A3,"(51.0416564941406, -114.210845947266)",51.04165649,-114.2108459,Mountain Standard Time,-420,GMT-07:00 America/Edmonton
399,Marriott Gateway,Starbucks,3997-146205,,LS,6755 Fallsview Blvd,6755 Fallsview Blvd,,,Niagara Falls,ON,CA,L2G 3W7,"(43.0770835876465, -79.0820693969727)",43.07708359,-79.0820694,Eastern Standard Time,-300,GMT-05:00 America/New_York
400,Safeway-Kelowna #7,Starbucks,74774-97794,250-860-4424,LS,2339 Hwy-97,2339 Hwy-97,,,Kelowna,BC,CA,V1X 4H9,"(49.8827209472656, -119.431991577148)",49.88272095,-119.4319916,Pacific Standard Time,-480,GMT-08:00 America/Vancouver
402,Avenue & Roe,Starbucks,4606-97784,416-787-9353,CO,1887 Avenue Road,1887 Avenue Road,,,Toronto,ON,CA,M5M 3Z9,"(43.7326431274414, -79.4192199707031)",43.73264313,-79.41921997,Eastern Standard Time,-300,GMT-05:00 America/Toronto
403,7333 Woodbine Ave,Starbucks,4609-97961,905-513-6767,CO,"7333 Woodbine Avenue, Unit 1",7333 Woodbine Avenue,Unit 1,,Markham,ON,CA,L3R 1A7,"(43.8226051330566, -79.3505935668945)",43.82260513,-79.35059357,Eastern Standard Time,-300,GMT-05:00 America/Toronto
781,The Westin Calgary,Starbucks,75976-100261,,LS,"320 4th Avenue, SW","320 4th Avenue, SW",,,Calgary,AB,CA,T2P 2S6,"(51.049503326416, -114.06819152832)",51.04950333,-114.0681915,Mountain Standard Time,-420,GMT-07:00 America/Edmonton
404,369 - 377 Highway 8,Starbucks,4607-98090,905-664-9494,CO,"369-377 Hwy 8, Unit B2, Worsley Plaza",369-377 Hwy 8,Unit B2,Worsley Plaza,Stoney Creek,ON,CA,L8G 1E7,"(43.2195358276367, -79.725715637207)",43.21953583,-79.72571564,Eastern Standard Time,-300,GMT-05:00 America/Toronto
405,Safeway-Airdrie #281,Starbucks,74745-97386,403-948-4838,LS,505 Main Street,505 Main Street,,,Airdrie,AB,CA,T4B 2B8,"(51.2955207824707, -114.013572692871)",51.29552078,-114.0135727,Mountain Standard Time,-420,GMT-07:00 America/Edmonton
407,Safeway-Edmonton #877,Starbucks,74760-97397,780-435-5132,LS,111 St NW & 51 Avenue NW,111 St NW & 51 Avenue NW,,,Edmonton,AB,CA,T6H 4M8,"(53.4860610961914, -113.522750854492)",53.4860611,-113.5227509,Mountain Standard Time,-420,GMT-07:00 America/Edmonton
408,Safeway-Calgary #288,Starbucks,74746-97383,403-255-2755,LS,1600 90th Avenue SW,1600 90th Avenue SW,,,Calgary,AB,CA,T2V 5A8,"(50.9723167419434, -114.098327636719)",50.97231674,-114.0983276,Mountain Standard Time,-420,GMT-07:00 America/Edmonton
409,Safeway-Spruce Grove #857,Starbucks,74784-97801,780-962-9183,LS,94 McLeod Avenue,94 McLeod Avenue,,,Spruce Grove,AB,CA,T7X 1R2,"(53.5423316955566, -113.911033630371)",53.5423317,-113.9110336,Mountain Standard Time,-420,GMT-07:00 America/Edmonton
414,Dundarave Village Mews,Starbucks,4592-97024,604-913-2171,CO,"2416 Marine Drive, Dundarave Village Mews",2416 Marine Drive,,Dundarave Village Mews,West Vancouver,BC,CA,V7V 1L1,"(49.3341217041016, -123.179901123047)",49.3341217,-123.1799011,Pacific Standard Time,-480,GMT-08:00 America/Vancouver
415,Safeway-Calgary #280,Starbucks,74744-97387,,LS,2525 Woodview Drive SW,2525 Woodview Drive SW,,,Calgary,AB,CA,T2W 4N4,"(50.9405288696289, -114.119209289551)",50.94052887,-114.1192093,Mountain Standard Time,-420,GMT-07:00 America/Edmonton
416,Main St & Front St - Penticton,Starbucks,4616-98531,250-770-1643,CO,202 Main Street,202 Main Street,,,Penticton,BC,CA,V2A 5B2,"(49.5002975463867, -119.593223571777)",49.50029755,-119.5932236,Pacific Standard Time,-480,GMT-08:00 America/Vancouver
417,16th & MacDonald St,Starbucks,4591-97339,604-733-4601,CO,3190 MacDonald Street,3190 MacDonald Street,,,Vancouver,BC,CA,V6K 4W7,"(49.2579193115234, -123.168212890625)",49.25791931,-123.1682129,Pacific Standard Time,-480,GMT-08:00 America/Vancouver
420,Longos Fairview,Starbucks,79269-99848,905-637-3804,LS,1225 Fairview St,1225 Fairview St,,,Burlington,ON,CA,L7S 1Y3,"(43.3294563293457, -79.8196182250977)",43.32945633,-79.81961823,Eastern Standard Time,-300,GMT-05:00 America/Toronto
421,Kingsway Ave & 117St,Starbucks,4618-98388,780-451-4773,CO,"11625 Kingsway Avenue, Kingsway Shopping Centre",11625 Kingsway Avenue,,Kingsway Shopping Centre,Edmonton,AB,CA,T5G 3E8,"(53.5658073425293, -113.520881652832)",53.56580734,-113.5208817,Mountain Standard Time,-420,GMT-07:00 America/Edmonton
422,Alder Crossing - 148th & KGH,Starbucks,4596-97669,604-531-8535,CO,"3288 King George Hwy, Unit #1, Alder Crossing",3288 King George Hwy,Unit #1,Alder Crossing,Surrey,BC,CA,V4P 1A5,"(49.0612525939941, -122.812355041504)",49.06125259,-122.812355,Pacific Standard Time,-480,GMT-08:00 America/Vancouver
423,Portico - Granville St & 7th Ave,Starbucks,4603-97841,604-732-8961,CO,"2288 Granville Street, Verona at Portico",2288 Granville Street,,Verona at Portico,Vancouver,BC,CA,V6H 4H7,"(49.265567779541, -123.138168334961)",49.26556778,-123.1381683,Pacific Standard Time,-480,GMT-08:00 America/Vancouver
424,Tribeca - 152nd & KGB,Starbucks,4593-97123,604-531-7641,CO,2670 152nd St,2670 152nd St,,,Surrey,BC,CA,V4P 1M8,"(49.0502700805664, -122.80086517334)",49.05027008,-122.8008652,Pacific Standard Time,-480,GMT-08:00 America/Vancouver
426,Bloor & Thompson,Starbucks,4613-98127,416-231-6116,CO,3079-3081 Bloor St W,3079-3081 Bloor St W,,,Toronto,ON,CA,M8X 1C7,"(43.6465797424316, -79.5140380859375)",43.64657974,-79.51403809,Eastern Standard Time,-300,GMT-05:00 America/Toronto
427,Safeway - Cochrane #2219,Starbucks,74829-100385,403-851-1290,LS,304 5th Avenue W,304 5th Avenue W,,,Cochrane,AB,CA,T4C 2A5,"(51.1852188110352, -114.476188659668)",51.18521881,-114.4761887,Mountain Standard Time,-420,GMT-07:00 America/Edmonton
429,Six Points Plaza-5230 Dundas St W,Starbucks,4608-98091,416-233-0440,CO,"5230 Dundas St W, Six Points Plaza",5230 Dundas St W,,Six Points Plaza,Toronto,ON,CA,M9B 1A8,"(43.6396217346191, -79.5375137329102)",43.63962173,-79.53751373,Eastern Standard Time,-300,GMT-05:00 America/Toronto
431,Valley Centre,Starbucks,4577-96689,604-533-7015,CO,"20151 Fraser Highway, Valley Centre",20151 Fraser Highway,,Valley Centre,Langley,BC,CA,V3A 4E4,"(49.1064186096191, -122.662605285645)",49.10641861,-122.6626053,Pacific Standard Time,-480,GMT-08:00 America/Vancouver
432,41st Ave & Balsam St,Starbucks,4604-98136,604-267-7703,CO,2348 West 41st Ave,2348 West 41st Ave,,,Vancouver,BC,CA,V6M 2A4,"(49.2344551086426, -123.160568237305)",49.23445511,-123.1605682,Pacific Standard Time,-480,GMT-08:00 America/Vancouver
390,Safeway - Dawson Creek #819,Starbucks,74974-103270,250-782-2253,LS,11216 8th St,11216 8th St,,,Dawson Creek,BC,CA,V1G 3R4,"(55.7487335205078, -120.224494934082)",55.74873352,-120.2244949,US Mountain Standard Time,-420,GMT+000000 America/Dawson_Cree
401,Safeway-Surrey #92,Starbucks,74729-97793,604-594-7341,LS,7450 120 St,7450 120 St,,,Surrey,BC,CA,V3W 3M9,"(49.138298034668, -122.889099121094)",49.13829803,-122.8890991,Pacific Standard Time,-480,GMT-08:00 America/Vancouver
406,Safeway-Okotoks #2223,Starbucks,74752-97381,403-938-9341,LS,610 Big Rock Ln,610 Big Rock Ln,,,Okotoks,AB,CA,T0L 1T5,"(50.7170333862305, -113.980339050293)",50.71703339,-113.9803391,Mountain Standard Time,-420,GMT-07:00 America/Edmonton
410,Safeway-Surrey #62,Starbucks,74758-97376,604-589-4774,LS,8860 152 St,8860 152 St,,,Surrey,BC,CA,V3R 4E4,"(49.1636619567871, -122.800643920898)",49.16366196,-122.8006439,Pacific Standard Time,-480,GMT-08:00 America/Vancouver
411,Safeway-Surrey #47,Starbucks,74757-97374,604-535-8960,LS,"15355 24 Ave, 604-",15355 24 Ave,,604-,Surrey,BC,CA,V4A 2H9,"(49.0466728210449, -122.796684265137)",49.04667282,-122.7966843,Pacific Standard Time,-480,GMT-08:00 America/Vancouver
412,Safeway - Vancouver #114,Starbucks,74811-99382,,LS,890 West 25 Avenue,890 West 25 Avenue,,,Vancouver,BC,CA,V5Z 2E2,"(49.2486801147461, -123.126480102539)",49.24868011,-123.1264801,Pacific Standard Time,-480,GMT-08:00 America/Vancouver
419,Longos Brampton,Starbucks,79267-99847,,LS,7700 Hurontario St,7700 Hurontario St,,,Brampton,ON,CA,L6Y 4M3,"(43.6599426269531, -79.7256927490234)",43.65994263,-79.72569275,Eastern Standard Time,-300,GMT-05:00 America/Toronto
428,Safeway - Fort St John #820,Starbucks,74828-99754,250-261-5477,LS,9123 100th St,9123 100th St,,,Fort St John,BC,CA,V1J 3X3,"(56.238094329834, -120.847267150879)",56.23809433,-120.8472672,US Mountain Standard Time,-420,GMT+000000 America/Dawson_Cree
434,Safeway - Calgary #2211,Starbucks,74832-99496,403-210-0002,LS,1632 14 Avenue NW,1632 14 Avenue NW,,,Calgary,AB,CA,T2N 1M7,"(51.0645332336426, -114.099029541016)",51.06453323,-114.0990295,Mountain Standard Time,-420,GMT-07:00 America/Edmonton
435,Safeway-Stony Plain #823,Starbucks,74750-97800,,LS,4202 Southpark Drive,4202 Southpark Drive,,,Stony Plain,AB,CA,T7Z 1L1,"(53.5411567687988, -113.978927612305)",53.54115677,-113.9789276,Mountain Standard Time,-420,GMT-07:00 America/Edmonton
436,Safeway - Calgary #2117,Starbucks,74831-99495,403-240-1098,LS,2425 34 Avenue SW,2425 34 Avenue SW,,,Calgary,AB,CA,T2T 6E3,"(51.0227584838867, -114.116394042969)",51.02275848,-114.116394,Mountain Standard Time,-420,GMT-07:00 America/Edmonton
438,Osborne Village,Starbucks,4605-94980,204-453-4700,CO,"481 River Avenue, Unit #1, Osborne Village",481 River Avenue,Unit #1,Osborne Village,Winnipeg,MB,CA,R3L 0C9,"(49.8790740966797, -97.1471939086914)",49.8790741,-97.14719391,Central Standard Time,-360,GMT-06:00 America/Winnipeg
440,Skylon Tower Base,Starbucks,75826-96571,905-356-2651,LS,5200 Robinson St,5200 Robinson St,,,Niagara Falls,ON,CA,L2G 2A3,"(43.0864944458008, -79.0796279907227)",43.08649445,-79.07962799,Eastern Standard Time,-300,GMT-05:00 America/New_York
443,Safeway Kamloops #89,Starbucks,74812-99780,250-314-2811,LS,945 West Columbia,945 West Columbia,,,Kamloops,BC,CA,V2C 1L5,"(50.6695175170898, -120.352363586426)",50.66951752,-120.3523636,Pacific Standard Time,-480,GMT-08:00 America/Vancouver
444,Safeway-Kamloops #56,Starbucks,74753-97373,250-376-4129,LS,750 Fortune Dr,750 Fortune Dr,,,Kamloops,BC,CA,V2B 2L2,"(50.698600769043, -120.359146118164)",50.69860077,-120.3591461,Pacific Standard Time,-480,GMT-08:00 America/Vancouver
447,Terminal & Begg,Starbucks,4522-87720,604-696-6410,CO,753 Terminal Avenue,753 Terminal Avenue,,,Vancouver,BC,CA,V6A 2M2,"(49.2710342407227, -123.087738037109)",49.27103424,-123.087738,Pacific Standard Time,-480,GMT-08:00 America/Vancouver
448,486 Hazeldean Road,Starbucks,4472-85804,613-836-3663,CO,486 Hazeldean Road,486 Hazeldean Road,,,Kanata,ON,CA,K2L 1V4,"(45.2965126037598, -75.8903350830078)",45.2965126,-75.89033508,Eastern Standard Time,-300,GMT-05:00 America/Toronto
449,Blue Mountain Village,Starbucks,75537-60379,705-444-4553,LS,156 Jozo Weider Blvd,156 Jozo Weider Blvd,,,Collingwood,ON,CA,L9Y 3Z2,"(44.5040969848633, -80.3117599487305)",44.50409698,-80.31175995,Eastern Standard Time,-300,GMT-05:00 America/Toronto
450,Safeway-Winnipeg #725,Starbucks,74687-94468,,LS,920 Jefferson Avenue,920 Jefferson Avenue,,,Winnipeg,MB,CA,R2P 1W1,"(49.944896697998, -97.1576995849609)",49.9448967,-97.15769958,Central Standard Time,-360,GMT-06:00 America/Winnipeg
455,City Square Mall,Starbucks,4562-96064,604-872-1201,CO,"555 W 12th Ave, 018, City Square Mall",555 W 12th Ave,18,City Square Mall,Vancouver,BC,CA,V5Z 3X7,"(49.2611198425293, -123.11563873291)",49.26111984,-123.1156387,Pacific Standard Time,-480,GMT-08:00 America/Vancouver
457,Deerfoot Meadows,Starbucks,4601-97847,403-253-4518,CO,"33 Heritage Meadows Way SE, Deerfoot Meadows",33 Heritage Meadows Way SE,,Deerfoot Meadows,Calgary,AB,CA,T2H 3B8,"(50.9836235046387, -114.041236877441)",50.9836235,-114.0412369,Mountain Standard Time,-420,GMT-07:00 America/Edmonton
459,2500 Appleby Line,Starbucks,4678-100978,905-336-4229,CO,"2500 Appleby Line, Building Pad A, Cornerstone Centre",2500 Appleby Line,Building Pad A,Cornerstone Centre,Burlington,ON,CA,L7L 0A2,"(43.4054946899414, -79.8080978393555)",43.40549469,-79.80809784,Eastern Standard Time,-300,GMT-05:00 America/Toronto
460,Safeway - Camrose #821,Starbucks,74971-103259,,LS,6800 48th Avenue,6800 48th Avenue,,,Camrose,AB,CA,T4V 4T1,"(53.0179824829102, -112.859115600586)",53.01798248,-112.8591156,Mountain Standard Time,-420,GMT-07:00 America/Edmonton
462,Safeway - Thunder Bay #682,Starbucks,74993-103264,,LS,1015 Dawson Road,1015 Dawson Road,,,Thunder Bay,ON,CA,P7B 5J4,"(48.4514770507813, -89.2537612915039)",48.45147705,-89.25376129,Eastern Standard Time,-300,GMT-05:00 America/Toronto
463,Safeway - Thunder Bay #681,Starbucks,74992-102425,,LS,115 West Arthur Street,115 West Arthur Street,,,Thunder Bay,ON,CA,P7E 5P7,"(48.3817481994629, -89.2794189453125)",48.3817482,-89.27941895,Eastern Standard Time,-300,GMT-05:00 America/Toronto
464,Safeway - Thunder Bay #664,Starbucks,74991-103263,,LS,70 North Court Street,70 North Court Street,,,Thunder Bay,ON,CA,P7B 2Z3,"(48.433479309082, -89.2249145507813)",48.43347931,-89.22491455,Eastern Standard Time,-300,GMT-05:00 America/Toronto
465,Oxford & Lougheed,Starbucks,4682-100790,604-464-0399,CO,2840 Oxford Street,2840 Oxford Street,,,Port Coquitlam,BC,CA,V3B 5L7,"(49.2638320922852, -122.766815185547)",49.26383209,-122.7668152,Pacific Standard Time,-480,GMT-08:00 America/Vancouver
466,Brookswood Village-200th & 40th,Starbucks,4721-103479,604-532-1260,CO,"4064 200th St, Brookswood Villaqge",4064 200th St,,Brookswood Villaqge,Langley,BC,CA,V3A 1K9,"(49.0762062072754, -122.6689453125)",49.07620621,-122.6689453,Pacific Standard Time,-480,GMT-08:00 America/Vancouver
469,London Towne Square,Starbucks,4930-106303,4032500234,CO,"3545 32 Ave NE, 553, London Towne Square",3545 32 Ave NE,553,London Towne Square,Calgary,AB,CA,T1Y 6M6,"(51.0810508728027, -113.984237670898)",51.08105087,-113.9842377,Mountain Standard Time,-420,GMT-07:00 America/Edmonton
470,1981 Parkdale Ave. Unit D,Starbucks,4897-109785,(613) 342-8368,CO,1981 Parkdale Ave. Unit D,1981 Parkdale Ave. Unit D,,,Brockville,ON,CA,K6V 0B4,"(44.6146202087402, -75.683837890625)",44.61462021,-75.68383789,Eastern Standard Time,-300,GMT-05:00 America/Toronto
471,1 Hespeler Rd,Starbucks,4886-107868,519-623-7893,CO,1 Hespeler Road,1 Hespeler Road,,,Cambridge,ON,CA,N1R 8L4,"(43.3742332458496, -80.3181838989258)",43.37423325,-80.3181839,Eastern Standard Time,-300,GMT-05:00 America/Toronto
473,Highway 16 & 75 Street,Starbucks,4959-105052,780 875 5394,CO,"7701 44th St Unit A Mail Box 709, COURIERS ONLY (NOT US/CANADA POST), Home Depot Power Centre",7701 44th St Unit A Mail Box 709,COURIERS ONLY (NOT US/CANADA POST),Home Depot Power Centre,Lloydminster,AB,CA,T9V 0X9,"(53.2775344848633, -110.056739807129)",53.27753448,-110.0567398,Mountain Standard Time,-420,GMT-07:00 America/Edmonton
474,Yonge & Eglinton- Minto Tower,Starbucks,4929-125664,416-488-1930,CO,"2193 Yonge Street, Unit Space C",2193 Yonge Street,Unit Space C,,Toronto,ON,CA,M4S 2V2,"(43.7055397033691, -79.3978576660156)",43.7055397,-79.39785767,Eastern Standard Time,-300,GMT-05:00 America/Toronto
475,3737 Major Mackenzie Dr,Starbucks,4791-104690,905-303-7097,CO,"3737 Major Mackenzie Drive, 101, Vellor Village",3737 Major Mackenzie Drive,101,Vellor Village,Vaughan,ON,CA,L4H 0A2,"(43.8444175720215, -79.5600738525391)",43.84441757,-79.56007385,Eastern Standard Time,-300,GMT-05:00 America/Toronto
477,Laird & Wicksteed,Starbucks,4667-100881,416-429-8827,CO,"65 Wicksteed Ave, C",65 Wicksteed Ave,C,,Toronto,ON,CA,M4G 4H9,"(43.7106781005859, -79.360969543457)",43.7106781,-79.36096954,Eastern Standard Time,-300,GMT-05:00 America/Toronto
478,3302 Woodroffe Avenue,Starbucks,4683-100798,613-823-9903,CO,3302 Woodroffe Avenue,3302 Woodroffe Avenue,,,Ottawa,ON,CA,K2J 4G5,"(45.2751312255859, -75.7187652587891)",45.27513123,-75.71876526,Eastern Standard Time,-300,GMT-05:00 America/Toronto
481,Safeway-Winnipeg #726,Starbucks,74867-97803,,LS,3900 Grant Avenue,3900 Grant Avenue,,,Winnipeg,MB,CA,R3R 3C2,"(49.8583488464355, -97.2638244628906)",49.85834885,-97.26382446,Central Standard Time,-360,GMT-06:00 America/Winnipeg
482,Safeway - Calgary #294,Starbucks,74942-102406,403-295-6895,LS,8120 Beddington Blvd Northwest,8120 Beddington Blvd Northwest,,,Calgary,AB,CA,T3K 2A8,"(51.1269035339355, -114.072235107422)",51.12690353,-114.0722351,Mountain Standard Time,-420,GMT-07:00 America/Edmonton
483,Safeway - Edmonton #2278,Starbucks,74970-102935,,LS,2304 109th Street NW,2304 109th Street NW,,,Edmonton,AB,CA,T6J 5E5,"(53.4549026489258, -113.510314941406)",53.45490265,-113.5103149,Mountain Standard Time,-420,GMT-07:00 America/Edmonton
484,170th St & 90th Ave NW,Starbucks,4680-101115,780-444-4813,CO,"17004 - 90th Avenue, Westgate Shopping Centre",17004 - 90th Avenue,,Westgate Shopping Centre,Edmonton,AB,CA,T5T 1L6,"(53.5253486633301, -113.616271972656)",53.52534866,-113.616272,Mountain Standard Time,-420,GMT-07:00 America/Edmonton
485,Island Hwy & Mills Rd,Starbucks,4643-99833,250-248-9720,CO,"382 E Island Highway, Mills Road Plaza",382 E Island Highway,,Mills Road Plaza,Parksville,BC,CA,V9P 1K8,"(49.318603515625, -124.300720214844)",49.31860352,-124.3007202,Pacific Standard Time,-480,GMT-08:00 America/Vancouver
487,4240 Innes Road,Starbucks,4666-100575,613-837-1815,CO,4240 Innes Road,4240 Innes Road,,,Orleans,ON,CA,K4A 5E6,"(45.457405090332, -75.4975738525391)",45.45740509,-75.49757385,Eastern Standard Time,-300,GMT-05:00 America/Toronto
489,Hanna & Atlantic,Starbucks,4841-109906,416-538-6818,CO,"85 Hanna Street, Liberty Centre",85 Hanna Street,,Liberty Centre,Toronto,ON,CA,M6K 3S3,"(43.6398162841797, -79.4195938110352)",43.63981628,-79.41959381,Eastern Standard Time,-300,GMT-05:00 America/Toronto
4558,부평점,Starbucks,34424-62819,032-514-1823,JV,159-25,159-25,,,인천,28,KR,403-010,"(37.4915885925293, 126.724487304688)",37.49158859,126.7244873,Korea Standard Time,540,GMT+09:00 Asia/Seoul
490,Marriott Halifax Harbourfront,Starbucks,75986-107397,,LS,1919 Upper Water Street,1919 Upper Water Street,,,Halifax,NS,CA,B3J 3J5,"(44.6508026123047, -63.5738182067871)",44.65080261,-63.57381821,Atlantic Standard Time,-240,GMT-04:00 America/Halifax
437,Safeway - Grand Prairie #826,Starbucks,74840-100563,780-833-8620,LS,84th & 100th Street,84th & 100th Street,,,Grand Prairie,AB,CA,T8V 1L4,"(55.156177520752, -118.794937133789)",55.15617752,-118.7949371,Mountain Standard Time,-420,GMT-07:00 America/Edmonton
442,Grouse Mountain Resort Vancouver,Starbucks,75829-58840,604-984-0661,LS,6400 Nancy Green Way,6400 Nancy Green Way,,,Vancouver,BC,CA,V7R 4K9,"(49.3724822998047, -123.098655700684)",49.3724823,-123.0986557,Pacific Standard Time,-480,GMT-08:00 America/Vancouver
451,Safeway-Langley #43,Starbucks,74461-95602,6045344363,LS,20871 Fraser Hwy,20871 Fraser Hwy,,,Langley,BC,CA,V3A 4G7,"(49.102424621582, -122.644561767578)",49.10242462,-122.6445618,Pacific Standard Time,-480,GMT-08:00 America/Vancouver
452,Safeway-Port Coquitlam #93,Starbucks,74462-95599,6049454072,LS,1100-2850 Shaughnessy St,1100-2850 Shaughnessy St,,,Port Coquitlam,BC,CA,V3C 6K5,"(49.2659454345703, -122.775314331055)",49.26594543,-122.7753143,Pacific Standard Time,-480,GMT-08:00 America/Vancouver
453,Safeway-Sherwood Park #822,Starbucks,74749-97398,780-467-3037,LS,2020 Sherwood Drive,2020 Sherwood Drive,,,Sherwood Park,AB,CA,T8A 3H9,"(53.5302810668945, -113.295417785645)",53.53028107,-113.2954178,Mountain Standard Time,-420,GMT-07:00 America/Edmonton
454,Safeway-Lethbridge #2276,Starbucks,74730-97380,,LS,1550 University Drive W,1550 University Drive W,,,Lethbridge,AB,CA,T1J 4T3,"(49.6936988830566, -112.891510009766)",49.69369888,-112.89151,Mountain Standard Time,-420,GMT-07:00 America/Edmonton
461,Safeway - Chilliwack #99,Starbucks,74898-100956,604-795-6428,LS,Yale Rd & Chem Ave,Yale Rd & Chem Ave,,,Chilliwack,BC,CA,V2P 2N9,"(49.164981842041, -121.958763122559)",49.16498184,-121.9587631,Pacific Standard Time,-480,GMT-08:00 America/Vancouver
468,Safeway - Calgary 2243,Starbucks,74996-104506,403-730-4955,LS,5607 4th Street NW,5607 4th Street NW,,,Calgary,AB,CA,T2K 1B3,"(51.1017761230469, -114.072601318359)",51.10177612,-114.0726013,Mountain Standard Time,-420,GMT-07:00 America/Edmonton
472,Safeway - North Vancouver #162,Starbucks,74965-103271,,LS,1175 Mt Seymour Road,1175 Mt Seymour Road,,,North Vancouver,BC,CA,V7H 2Y4,"(49.316780090332, -122.969131469727)",49.31678009,-122.9691315,Pacific Standard Time,-480,GMT-08:00 America/Vancouver
488,Save-on-Foods - Sidney,Starbucks,74955-103265,,LS,2345 Beacon Avenue,2345 Beacon Avenue,,,Sidney,BC,CA,V8L 1W9,"(48.6481285095215, -123.402420043945)",48.64812851,-123.40242,Pacific Standard Time,-480,GMT-08:00 America/Vancouver
492,Safeway - Smithers #144,Starbucks,79648-107923,2508472622,LS,3664 Highway 16,3664 Highway 16,,,Smithers,BC,CA,V0J 2N0,"(54.8232650756836, -127.190361022949)",54.82326508,-127.190361,Pacific Standard Time,-480,GMT-08:00 America/Vancouver
493,The Grange,Starbucks,4784-103640,780-484-4504,CO,2578 Guardian Road NW,2578 Guardian Road NW,,,Edmonton,AB,CA,T5T 1K8,"(53.5113792419434, -113.675788879395)",53.51137924,-113.6757889,Mountain Standard Time,-420,GMT-07:00 America/Edmonton
494,Clayton Crossing,Starbucks,4620-97785,604-575-7800,CO,"18737 Fraser Highway, Unit 103, Clayton Crossing Shopping Centre",18737 Fraser Highway,Unit 103,Clayton Crossing Shopping Centre,Surrey,BC,CA,V3S 7Y3,"(49.1247406005859, -122.702857971191)",49.1247406,-122.702858,Pacific Standard Time,-480,GMT-08:00 America/Vancouver
495,St. Vital Centre,Starbucks,4693-102049,204-254-2620,CO,"1225 St. Mary's Road, St. Vital Centre",1225 St. Mary's Road,,St. Vital Centre,Winnipeg,MB,CA,R2M 5E5,"(49.8290176391602, -97.1089019775391)",49.82901764,-97.10890198,Central Standard Time,-360,GMT-06:00 America/Winnipeg
496,3180 Douglas St - Victoria,Starbucks,4546-95139,250-360-0339,CO,3180 Douglas St,3180 Douglas St,,,Victoria,BC,CA,V8Z 3K5,"(48.4469566345215, -123.372314453125)",48.44695663,-123.3723145,Pacific Standard Time,-480,GMT-08:00 America/Vancouver
498,25 Consumers Dr,Starbucks,4627-99063,905-668-0638,CO,25 Consumers Drive,25 Consumers Drive,,,Whitby,ON,CA,L1N 9S2,"(43.8718795776367, -78.9082260131836)",43.87187958,-78.90822601,Eastern Standard Time,-300,GMT-05:00 America/Toronto
499,South Park,Starbucks,4837-103833,(780)435-9186,CO,"3906 Gateway Blvd, South Park",3906 Gateway Blvd,,South Park,Edmonton,AB,CA,T6J 5M8,"(53.4739685058594, -113.49275970459)",53.47396851,-113.4927597,Mountain Standard Time,-420,GMT-07:00 America/Edmonton
500,Bridgeport & No 3 Road,Starbucks,4849-103752,604-247-0717,CO,8525 Sea Island Way,8525 Sea Island Way,,,Richmond,BC,CA,V6X 0A8,"(49.1912612915039, -123.129371643066)",49.19126129,-123.1293716,Pacific Standard Time,-480,GMT-08:00 America/Vancouver
501,Safeway - Winnipeg # 701,Starbucks,79647-107919,,LS,285 Marion Street,285 Marion Street,,,Winnipeg,MB,CA,R2H 0T8,"(49.8821296691895, -97.1149368286133)",49.88212967,-97.11493683,Central Standard Time,-360,GMT-06:00 America/Winnipeg
502,Mainland & Nelson Yaletown Park,Starbucks,4813-107732,604-609-7075,CO,"977 Mainland Street, 987",977 Mainland Street,987,,Vancouver,BC,CA,V6B 1T2,"(49.277286529541, -123.118682861328)",49.27728653,-123.1186829,Pacific Standard Time,-480,GMT-08:00 America/Vancouver
503,1170 Fischer-Hallman road,Starbucks,4815-107007,519-749-0221,CO,"1170 Fischer Hallman Road, Building 200, Unit 20",1170 Fischer Hallman Road,"Building 200, Unit 20",,Kitchener,ON,CA,N2E 3V7,"(43.407283782959, -80.5003433227539)",43.40728378,-80.50034332,Eastern Standard Time,-300,GMT-05:00 America/Toronto
504,Genco Place,Starbucks,4773-103661,403 263-0033,CO,"396 - 11th Avenue SW, Genco Place",396 - 11th Avenue SW,,Genco Place,Calgary,AB,CA,T2R 0C5,"(51.0427665710449, -114.071113586426)",51.04276657,-114.0711136,Mountain Standard Time,-420,GMT-07:00 America/Edmonton
505,Government & Fisgard,Starbucks,4936-132644,250-382-7662,CO,1 - 1689 Government Street,1 - 1689 Government Street,,,Victoria,BC,CA,V8W 0A1,"(48.4292449951172, -123.366539001465)",48.429245,-123.366539,Pacific Standard Time,-480,GMT-08:00 America/Vancouver
506,1180 Steeles Ave E,Starbucks,4014-138344,905 876-3769,CO,"1180 Steeles Ave East, Milton Crossroads",1180 Steeles Ave East,,Milton Crossroads,Milton,ON,CA,L9T 6C8,"(43.5403594970703, -79.8715896606445)",43.5403595,-79.87158966,Eastern Standard Time,-300,GMT-05:00 America/Toronto
507,1100 Wilson Street W & Shaver Road,Starbucks,4901-113505,905-304-8494,CO,1100 Wilson Street West,1100 Wilson Street West,,,Ancaster,ON,CA,L9G 3K9,"(43.1980438232422, -80.0159759521484)",43.19804382,-80.01597595,Eastern Standard Time,-300,GMT-05:00 America/Toronto
508,505 McNeely Road,Starbucks,4904-114726,613-253-1760,CO,"505 McNeely Road, Carleton Place Colonnade",505 McNeely Road,,Carleton Place Colonnade,Carleton Place,ON,CA,K7C 0A8,"(45.1320457458496, -76.1192398071289)",45.13204575,-76.11923981,Eastern Standard Time,-300,GMT-05:00 America/Toronto
509,Circle Dr & 8th Street E Indigo,Starbucks,4983-137904,306-651-6993,CO,"3310 - 8th St East, The Centre at Circle and Eigth SC",3310 - 8th St East,,The Centre at Circle and Eigth SC,Saskatoon,SK,CA,S7H 5M3,"(52.114200592041, -106.600860595703)",52.11420059,-106.6008606,Canada Central Standard Time,-360,GMT-06:00 America/Regina
510,Safeway-Moose Jaw #395,Starbucks,79740-128704,13066938033,LS,200 1st Avenue NW,200 1st Avenue NW,,,Moose Jaw,SK,CA,S6H 1S6,"(50.3916778564453, -105.537490844727)",50.39167786,-105.5374908,Canada Central Standard Time,-360,GMT-06:00 America/Regina
511,HSBC Bank Place,Starbucks,4778-106692,780 441 9054,CO,"10250-101 Street, G11, Allstream Tower",10250-101 Street,G11,Allstream Tower,Edmonton,AB,CA,T5J 3P4,"(53.5438346862793, -113.493927001953)",53.54383469,-113.493927,Mountain Standard Time,-420,GMT-07:00 America/Edmonton
512,The Melville - Melville & Bute,Starbucks,4625-98621,604-682-4635,CO,"580 Bute St, The Melville",580 Bute St,,The Melville,Vancouver,BC,CA,V6E 3M1,"(49.287841796875, -123.123756408691)",49.2878418,-123.1237564,Pacific Standard Time,-480,GMT-08:00 America/Vancouver
513,Newport Village,Starbucks,4988-139545,403-258-0352,CO,9110 MacLeod Trail SE,9110 MacLeod Trail SE,,,Calgary,AB,CA,T2J 0P5,"(50.9718589782715, -114.070922851563)",50.97185898,-114.0709229,Mountain Standard Time,-420,GMT-07:00 America/Edmonton
514,340 Albert Street,Starbucks,4944-128924,613-232-9089,CO,"340 Albert Street, Unit No G-06",340 Albert Street,Unit No G-06,,Ottawa,ON,CA,K1R 7X7,"(45.418830871582, -75.7025604248047)",45.41883087,-75.70256042,Eastern Standard Time,-300,GMT-05:00 America/Toronto
515,"70 Copper Creek Dr, Bldg H",Starbucks,4951-128928,(905)209-7630,CO,"70 Copper Creek Drive Building H,, Unit N","70 Copper Creek Drive Building H,",Unit N,,Markham,ON,CA,L6B 0P2,"(43.8663330078125, -79.2290878295898)",43.86633301,-79.22908783,Eastern Standard Time,-300,GMT-05:00 America/Toronto
517,10 Disera Dr,Starbucks,4835-107119,(905)764-9723,CO,"10 Disera Drive, Unit G7",10 Disera Drive,Unit G7,,Vaughan,ON,CA,L4J 0A7,"(43.8104057312012, -79.4541931152344)",43.81040573,-79.45419312,Eastern Standard Time,-300,GMT-05:00 America/Toronto
518,Marriott Chateau Champlain Sodexho,Starbucks,70047-133205,,LS,Rue Peel & Rue St-Antoine W,Rue Peel & Rue St-Antoine W,,,Montreal,QC,CA,H3B 4C9,"(45.4975318908691, -73.5674133300781)",45.49753189,-73.56741333,Eastern Standard Time,-300,GMT-05:00 America/Montreal
520,4th & Bayswater,Starbucks,4881-120365,(604) 732-6171,CO,2948 West 4th Avenue,2948 West 4th Avenue,,,Vancouver,BC,CA,V6K 1R2,"(49.2682304382324, -123.170875549316)",49.26823044,-123.1708755,Pacific Standard Time,-480,GMT-08:00 America/Vancouver
522,Longos Oakville,Starbucks,73863-106113,,LS,3455 Wyecroft Rd,3455 Wyecroft Rd,,,Burlington,ON,CA,L6L 0B1,"(43.3979797363281, -79.7471237182617)",43.39797974,-79.74712372,Eastern Standard Time,-300,GMT-05:00 America/Toronto
523,Regent Avenue,Starbucks,4883-108964,204 663 1758,CO,"1581 Regent Avenue West, Unit 1",1581 Regent Avenue West,Unit 1,,Winnipeg,MB,CA,R2C 3B3,"(49.8983612060547, -97.0669937133789)",49.89836121,-97.06699371,Central Standard Time,-360,GMT-06:00 America/Winnipeg
524,2509 Prince Michael Dr,Starbucks,4816-104227,905-257-5805,CO,2509 Prince Michael Dr.,2509 Prince Michael Dr.,,,Oakville,ON,CA,L6H 0E9,"(43.4976119995117, -79.7075119018555)",43.497612,-79.7075119,Eastern Standard Time,-300,GMT-05:00 America/Toronto
525,Broadway & Cambie,Starbucks,4760-101290,604-872-5666,CO,"500 West Broadway, 104",500 West Broadway,104,,Vancouver,BC,CA,V5Z 1E9,"(49.2630615234375, -123.115142822266)",49.26306152,-123.1151428,Pacific Standard Time,-480,GMT-08:00 America/Vancouver
526,Burrard & Georgia,Starbucks,4871-118904,604-632-3828,CO,"1030 W. Georgia Street, 1014, Burrard Building",1030 W. Georgia Street,1014,Burrard Building,Vancouver,BC,CA,V6E 2Y3,"(49.2845458984375, -123.121849060059)",49.2845459,-123.1218491,Pacific Standard Time,-480,GMT-08:00 America/Vancouver
527,1101 Rutherford Rd,Starbucks,4906-124044,905-709-9854,CO,1101 Rutherford Rd,1101 Rutherford Rd,,,Vaughan,ON,CA,L4J 0E2,"(43.8449440002441, -79.4705963134766)",43.844944,-79.47059631,Eastern Standard Time,-300,GMT-05:00 America/Toronto
528,1241 Elgin Mills Road East,Starbucks,4905-110264,905-508-9956,CO,"1241 Elgin Mills Road East, Building C",1241 Elgin Mills Road East,Building C,,Richmond Hill,ON,CA,L4S 0B5,"(43.896297454834, -79.4039535522461)",43.89629745,-79.40395355,Eastern Standard Time,-300,GMT-05:00 America/Toronto
532,Big Bend Crossing - Marine & Byrne,Starbucks,4873-114186,604-454-1065,CO,"5761 Marine Way, 400, Big Bend Crossing",5761 Marine Way,400,Big Bend Crossing,Burnaby,BC,CA,V5J 0A6,"(49.1987228393555, -122.976898193359)",49.19872284,-122.9768982,Pacific Standard Time,-480,GMT-08:00 America/Vancouver
533,Safeway Vernon #24,Starbucks,73862-115466,250-542-8167,LS,3417 30th Ave,3417 30th Ave,,,Vernon,BC,CA,V1T 2E3,"(50.2637901306152, -119.277381896973)",50.26379013,-119.2773819,Pacific Standard Time,-480,GMT-08:00 America/Vancouver
537,Victoria Park & Consumers Rd.,Starbucks,4804-106564,416-493-5209,CO,"2555 Victoria Park Avenue, Victoria Commons",2555 Victoria Park Avenue,,Victoria Commons,Toronto,ON,CA,M1T 1A3,"(43.7722129821777, -79.3211212158203)",43.77221298,-79.32112122,Eastern Standard Time,-300,GMT-05:00 America/Toronto
538,11710 Yonge St,Starbucks,4850-104701,905-770-3197,CO,"11710 Yonge St, 1",11710 Yonge St,1,,Richmond Hill,ON,CA,L4E 0K4,"(43.9127616882324, -79.4472885131836)",43.91276169,-79.44728851,Eastern Standard Time,-300,GMT-05:00 America/Toronto
539,Safeway - Saskatoon #323,Starbucks,79682-102417,13069348185,LS,134 Primrose Dri,134 Primrose Dri,,,Saskatoon,SK,CA,S7K 5S6,"(52.1684608459473, -106.639808654785)",52.16846085,-106.6398087,Canada Central Standard Time,-360,GMT-06:00 America/Regina
540,Wellington & York TD PATH Foodcourt,Starbucks,4779-114784,(416) 304-0391,CO,"100 Wellington Street West, WS13",100 Wellington Street West,WS13,,Toronto,ON,CA,M5K 1J5,"(43.6469993591309, -79.3825912475586)",43.64699936,-79.38259125,Eastern Standard Time,-300,GMT-05:00 America/Toronto
541,Mayor Magrath Drive,Starbucks,4839-107715,(403)320-2158,CO,1409 Mayor Magrath,1409 Mayor Magrath,,,Lethbridge,AB,CA,T1K 2R1,"(49.6777877807617, -112.801971435547)",49.67778778,-112.8019714,Mountain Standard Time,-420,GMT-07:00 America/Edmonton
542,Memorial & Edmonton Trail,Starbucks,4875-119885,4036999602,CO,11 Edmonton Trail NE,11 Edmonton Trail NE,,,Calgary,AB,CA,T2E 8R4,"(51.0513305664063, -114.050720214844)",51.05133057,-114.0507202,Mountain Standard Time,-420,GMT-07:00 America/Edmonton
543,320 Colborne St W,Starbucks,4800-104920,519-753-3257,CO,"320 Colburne Street West, Unit 15",320 Colburne Street West,Unit 15,,Brantford,ON,CA,N3T 1M2,"(43.1303825378418, -80.2859497070313)",43.13038254,-80.28594971,Eastern Standard Time,-300,GMT-05:00 America/Toronto
545,380 Coventry Road,Starbucks,4788-104697,613-744-6471,CO,380 Coventry Road,380 Coventry Road,,,Ottawa,ON,CA,K1K 2C6,"(45.4210891723633, -75.6492309570313)",45.42108917,-75.64923096,Eastern Standard Time,-300,GMT-05:00 America/Toronto
547,Sundance,Starbucks,4876-107838,403-873-0792,CO,"6115 Sunpark Plaza SE, Sundance Office Park",6115 Sunpark Plaza SE,,Sundance Office Park,Calgary,AB,CA,T2X 0N5,"(50.9046325683594, -114.057502746582)",50.90463257,-114.0575027,Mountain Standard Time,-420,GMT-07:00 America/Edmonton
548,Devon Tower,Starbucks,4848-107725,403 532 9375,CO,"400 - 3rd Avenue SW, 220, Canterra Tower",400 - 3rd Avenue SW,220,Canterra Tower,Calgary,AB,CA,T2P 4H2,"(51.0508270263672, -114.070953369141)",51.05082703,-114.0709534,Mountain Standard Time,-420,GMT-07:00 America/Edmonton
529,YYC Gate a16,Starbucks,70002-120504,,LS,2000 Airport Road NE,2000 Airport Road NE,,,Calgary,AB,CA,T2E 6W5,"(51.128589630127, -114.008781433105)",51.12858963,-114.0087814,Mountain Standard Time,-420,GMT-07:00 America/Edmonton
530,Compass @ Langara College,Starbucks,78056-116695,6043235122,LS,100 W 49th Ave,100 W 49th Ave,,,Vancouver,BC,CA,v5y 2z6,"(49.2248115539551, -123.10693359375)",49.22481155,-123.1069336,Pacific Standard Time,-480,GMT-08:00 America/Vancouver
534,Safeway Calgary - #227,Starbucks,79698-120206,403-286-5510,LS,3625 Shaganappi Trl NW,3625 Shaganappi Trl NW,,,Calgary,AB,CA,T3A 0E2,"(51.084285736084, -114.156806945801)",51.08428574,-114.1568069,Mountain Standard Time,-420,GMT-07:00 America/Edmonton
536,Safeway - Calgary #287,Starbucks,79555-106107,403-278-5225,LS,11011 Bonaventure Dr SE,11011 Bonaventure Dr SE,,,Calgary,AB,CA,T2J 6S1,"(50.9527015686035, -114.062225341797)",50.95270157,-114.0622253,Mountain Standard Time,-420,GMT-07:00 America/Edmonton
549,Guisachan Village,Starbucks,4866-113885,250-712-9344,CO,"2365 Gordon Dr, 104, Guisachan Village",2365 Gordon Dr,104,Guisachan Village,Kelowna,BC,CA,V1W 3C2,"(49.8719825744629, -119.474838256836)",49.87198257,-119.4748383,Pacific Standard Time,-480,GMT-08:00 America/Vancouver
550,Beverly Corners at Trans Can Hwy,Starbucks,4847-100916,250-737-1077,CO,2755 Beverly Street,2755 Beverly Street,,,Duncan,BC,CA,V9L 6X2,"(48.7861785888672, -123.707077026367)",48.78617859,-123.707077,Pacific Standard Time,-480,GMT-08:00 America/Vancouver
551,Pembina & Point,Starbucks,4884-116244,204-284-5630,CO,"1144  Pembina Hwy, 1",1144  Pembina Hwy,1,,Winnipeg,MB,CA,R3T 2A2,"(49.8470001220703, -97.1525192260742)",49.84700012,-97.15251923,Central Standard Time,-360,GMT-06:00 America/Winnipeg
554,"8010 Bathurst St, Bldg C, Unit 6",Starbucks,4743-103298,905-731-3131,CO,"8010 Bathurst Street, Building C, Unit 6, Building C","8010 Bathurst Street, Building C, Unit 6",Building C,,Vaughan,ON,CA,L4J 0B8,"(43.8168182373047, -79.4521331787109)",43.81681824,-79.45213318,Eastern Standard Time,-300,GMT-05:00 America/Toronto
555,Langford Centre,Starbucks,4785-104821,250-474-3937,CO,"782 Goldstream Avenue, Langford Centre",782 Goldstream Avenue,,Langford Centre,Langford,BC,CA,V9B 2X3,"(48.4490356445313, -123.498916625977)",48.44903564,-123.4989166,Pacific Standard Time,-480,GMT-08:00 America/Vancouver
556,Greencrest Plaza,Starbucks,4827-106769,(204)275-2293,CO,"2750 Pembina Highway, Greencrest Plaza",2750 Pembina Highway,,Greencrest Plaza,Winnipeg,MB,CA,R3T 2H8,"(49.7926025390625, -97.1566467285156)",49.79260254,-97.15664673,Central Standard Time,-360,GMT-06:00 America/Winnipeg
557,Safeway - Winnipeg #714,Starbucks,79675-102423,,LS,2155 Pembina Hwy,2155 Pembina Hwy,,,Winnipeg,MB,CA,R3T 2H1,"(49.8118858337402, -97.1547241210938)",49.81188583,-97.15472412,Central Standard Time,-360,GMT-06:00 America/Winnipeg
560,Cobblestone,Starbucks,4838-108631,(780)532-0759,CO,"104, 9910 92nd Street, Cobblestone","104, 9910 92nd Street",,Cobblestone,Grande Prairie,AB,CA,T8X 0E7,"(55.1694450378418, -118.768600463867)",55.16944504,-118.7686005,Mountain Standard Time,-420,GMT-07:00 America/Edmonton
561,E. Columbia & Sherbrooke,Starbucks,4810-107004,604-522-7573,CO,411 East Columbia Street,411 East Columbia Street,,,New Westminster,BC,CA,V3L 3X3,"(49.2286071777344, -122.892944335938)",49.22860718,-122.8929443,Pacific Standard Time,-480,GMT-08:00 America/Vancouver
562,Safeway-Calgary #2000,Starbucks,79713-123485,403-293-0915,LS,850 Saddletowne Cir NE,850 Saddletowne Cir NE,,,Calgary,AB,CA,T3J 5M1,"(51.1233863830566, -113.945693969727)",51.12338638,-113.945694,Mountain Standard Time,-420,GMT-07:00 America/Edmonton
564,870 Main St E,Starbucks,4833-107475,905-693-8070,CO,"870 Main St East, Unit 1, Milton Loblaws Centre",870 Main St East,Unit 1,Milton Loblaws Centre,Milton,ON,CA,L9T 0J4,"(43.5272636413574, -79.8661575317383)",43.52726364,-79.86615753,Eastern Standard Time,-300,GMT-05:00 America/Toronto
566,Fairview Mall - Food Court,Starbucks,4863-117166,416-494-8348,CO,"1800 Sheppard Avenue East, Unit F 13","1800 Sheppard Avenue East, Unit F 13",,,Toronto,ON,CA,M2J 5A7,"(43.7789001464844, -79.3437881469727)",43.77890015,-79.34378815,Eastern Standard Time,-300,GMT-05:00 America/Toronto
567,Kingston Rd & Bingham Ave,Starbucks,4719-101643,416-686-1309,CO,1020 Kingston Road,1020 Kingston Road,,,Toronto,ON,CA,M4E 1T4,"(43.6808815002441, -79.2849731445313)",43.6808815,-79.28497314,Eastern Standard Time,-300,GMT-05:00 America/Toronto
569,Front & Frederick,Starbucks,4859-115935,416-361-5037,CO,"132 Front Street East, Unit # 1E","132 Front Street East, Unit # 1E",,,TORONTO,ON,CA,M5A 1E2,"(43.650032043457, -79.3694610595703)",43.65003204,-79.36946106,Eastern Standard Time,-300,GMT-05:00 America/Toronto
570,3940 Brock St N,Starbucks,4911-108286,905 665-9656,CO,3940 Brock Street North,3940 Brock Street North,,,Whitby,ON,CA,L1R 3E1,"(43.914794921875, -78.9588928222656)",43.91479492,-78.95889282,Eastern Standard Time,-300,GMT-05:00 America/Toronto
574,Livingston Place,Starbucks,4809-103829,(403)532 -0297,CO,"2nd Floor, 222 3rd Ave SW, Livingston Place","2nd Floor, 222 3rd Ave SW",,Livingston Place,Calgary,AB,CA,T2P 0B4,"(51.0508880615234, -114.066711425781)",51.05088806,-114.0667114,Mountain Standard Time,-420,GMT-07:00 America/Edmonton
575,Centrepoint-Kingsway & Miller,Starbucks,4739-103079,604-431-7479,CO,"4847 Kingsway Ave, Centrepoint",4847 Kingsway Ave,,Centrepoint,Burnaby,BC,CA,V5H 4T6,"(49.2272186279297, -122.99520111084)",49.22721863,-122.9952011,Pacific Standard Time,-480,GMT-08:00 America/Vancouver
576,Safeway - North Delta #14,Starbucks,79646-108553,,LS,6401 120 St,6401 120 St,,,Delta,BC,CA,V4E 3G3,"(49.1199684143066, -122.892127990723)",49.11996841,-122.892128,Pacific Standard Time,-480,GMT-08:00 America/Vancouver
577,Royal Bank Plaza - PATH Concourse,Starbucks,4830-108885,416-214-5120,CO,"200 Bay Street, CUR9, Royal Bank Plaza",200 Bay Street,CUR9,Royal Bank Plaza,Toronto,ON,CA,M5J 2W4,"(43.6459770202637, -79.3799896240234)",43.64597702,-79.37998962,Eastern Standard Time,-300,GMT-05:00 America/Toronto
578,Morningside & Lawrence,Starbucks,4777-104186,416-208-9477,CO,255 Morningside Avenue,255 Morningside Avenue,,,Toronto,ON,CA,M1E 3E6,"(43.7703742980957, -79.1864852905273)",43.7703743,-79.18648529,Eastern Standard Time,-300,GMT-05:00 America/Toronto
584,6020 Hurontario St,Starbucks,4829-109065,905-502-6850,CO,6020 Hurontario Street,6020 Hurontario Street,,,Mississauga,ON,CA,L5R 4B3,"(43.6263542175293, -79.6801986694336)",43.62635422,-79.68019867,Eastern Standard Time,-300,GMT-05:00 America/Toronto
585,1164 Highbury Ave N,Starbucks,4822-106553,519-457-7139,CO,1164 Highbury Ave N,1164 Highbury Ave N,,,London,ON,CA,N5Y 1A7,"(43.0146827697754, -81.2121200561523)",43.01468277,-81.21212006,Eastern Standard Time,-300,GMT-05:00 America/Toronto
586,Safeway - Edmonton #802,Starbucks,79611-102933,,LS,576 Riverbend Square NW,576 Riverbend Square NW,,,Edmonton,AB,CA,T6R 2E3,"(53.4685211181641, -113.588447570801)",53.46852112,-113.5884476,Mountain Standard Time,-420,GMT-07:00 America/Edmonton
589,1690 Huron Church Rd,Starbucks,4669-100547,519-258-9658,CO,1690 Huron Church Road,1690 Huron Church Road,,,Windsor,ON,CA,N9C 2L1,"(42.2859954833984, -83.0568084716797)",42.28599548,-83.05680847,Eastern Standard Time,-300,GMT-05:00 America/New_York
590,Lonsdale Ave & 17th,Starbucks,4728-103755,604-904-9480,CO,1701 Lonsdale Avenue,1701 Lonsdale Avenue,,,North Vancouver,BC,CA,V7M 2J6,"(49.3242607116699, -123.072532653809)",49.32426071,-123.0725327,Pacific Standard Time,-480,GMT-08:00 America/Vancouver
592,Dewdney Trunk & 240th,Starbucks,4727-103669,604-463-4859,CO,23981 Dewdney Trunk Road,23981 Dewdney Trunk Road,,,Maple Ridge,BC,CA,V4R 1W1,"(49.2205276489258, -122.557312011719)",49.22052765,-122.557312,Pacific Standard Time,-480,GMT-08:00 America/Vancouver
593,McKenzie & Teakwood - Tuscany,Starbucks,4530-94099,250-472-3235,CO,"104-1646 McKenzie Avenue, Tuscany Village",104-1646 McKenzie Avenue,,Tuscany Village,Victoria,BC,CA,V8N 0A3,"(48.4689674377441, -123.330230712891)",48.46896744,-123.3302307,Pacific Standard Time,-480,GMT-08:00 America/Vancouver
594,124 O'Connor Street,Starbucks,4649-99938,613-232-0959,CO,124 O'Connor Street,124 O'Connor Street,,,Ottawa,ON,CA,K1P 5M9,"(45.4194297790527, -75.6973266601563)",45.41942978,-75.69732666,Eastern Standard Time,-300,GMT-05:00 America/Toronto
596,131 Queen Street,Starbucks,4696-101662,613-232-0731,CO,"131 Queen Street, Units F & G",131 Queen Street,Units F & G,,Ottawa,ON,CA,K1P 0A1,"(45.4217147827148, -75.6984786987305)",45.42171478,-75.6984787,Eastern Standard Time,-300,GMT-05:00 America/Toronto
597,615 Fanshawe Park Rd,Starbucks,4729-102626,519-657-3731,CO,"615 Fanshawe Park Road, Unit 1",615 Fanshawe Park Road,Unit 1,,London,ON,CA,N6G 5B3,"(43.0188407897949, -81.3101654052734)",43.01884079,-81.31016541,Eastern Standard Time,-300,GMT-05:00 America/Toronto
598,Quadra & Yates,Starbucks,4708-103126,250-360-2246,CO,865 Yates Street,865 Yates Street,,,Victoria,BC,CA,V8W 2K7,"(48.4254913330078, -123.359596252441)",48.42549133,-123.3595963,Pacific Standard Time,-480,GMT-08:00 America/Vancouver
599,Pacific Rim Station-Pt Alberni D/T,Starbucks,4686-99705,250-723-5242,CO,"101-3555 Johnston Rd, Pacific Rim Station",101-3555 Johnston Rd,,Pacific Rim Station,Port Alberni,BC,CA,V9Y 8K2,"(49.2663764953613, -124.785713195801)",49.2663765,-124.7857132,Pacific Standard Time,-480,GMT-08:00 America/Vancouver
602,Lonsdale Ave & 3rd St,Starbucks,4707-101288,604-904-8681,CO,273 Lonsdale Ave,273 Lonsdale Ave,,,North Vancouver,BC,CA,V7M 2E9,"(49.3134384155273, -123.077331542969)",49.31343842,-123.0773315,Pacific Standard Time,-480,GMT-08:00 America/Vancouver
604,Town Ctr Mall-Powell River,Starbucks,4705-101307,604-485-1270,CO,7065 Barnet Street,7065 Barnet Street,,,Powell River,BC,CA,V8A 1Z9,"(49.8418083190918, -124.517753601074)",49.84180832,-124.5177536,Pacific Standard Time,-480,GMT-08:00 America/Vancouver
605,3059 Wonderland Rd S,Starbucks,4700-102138,519-649-5467,CO,3059 Wonderland Rd S,3059 Wonderland Rd S,,,London,ON,CA,N6L 1R4,"(42.9371528625488, -81.2815704345703)",42.93715286,-81.28157043,Eastern Standard Time,-300,GMT-05:00 America/Toronto
607,Yonge & Avondale,Starbucks,4711-103342,416-590-7396,CO,1 Avondale Avenue,1 Avondale Avenue,,,Toronto,ON,CA,M2N 7J1,"(43.757999420166, -79.4097747802734)",43.75799942,-79.40977478,Eastern Standard Time,-300,GMT-05:00 America/Toronto
608,Terminal SC @ Princess Ave-Nanaimo,Starbucks,4741-100791,250-716-7828,CO,"1150 North Terminal Avenue, 101, Terminal Shopping Centre",1150 North Terminal Avenue,101,Terminal Shopping Centre,Nanaimo,BC,CA,V9S 5L6,"(49.1833152770996, -123.954635620117)",49.18331528,-123.9546356,Pacific Standard Time,-480,GMT-08:00 America/Vancouver
609,Queensborough Landing,Starbucks,4599-96885,604-523-9278,CO,"805 Boyd St, 150, Queensborough Landing Shopping Centre",805 Boyd St,150,Queensborough Landing Shopping Centre,New Westminster,BC,CA,V3M 5X2,"(49.1911010742188, -122.947036743164)",49.19110107,-122.9470367,Pacific Standard Time,-480,GMT-08:00 America/Vancouver
610,Safeway-Dryden #679,Starbucks,74755-97369,,LS,75 Whyte Ave,75 Whyte Ave,,,Dryden,ON,CA,P8N 3E6,"(49.7815322875977, -92.8388442993164)",49.78153229,-92.8388443,Central Standard Time,-360,GMT-06:00 America/Rainy_River
612,Safeway - Regina #399,Starbucks,79530-102414,13067893191,LS,2223 Victoria Ave East,2223 Victoria Ave East,,,Regina,SK,CA,S4P 0S4,"(50.4456253051758, -104.552665710449)",50.44562531,-104.5526657,Canada Central Standard Time,-360,GMT-06:00 America/Regina
613,841 Rye St,Starbucks,4701-102160,705-755-1071,CO,841 Rye Street,841 Rye Street,,,Peterborough,ON,CA,K9J 6X1,"(44.2815399169922, -78.3457412719727)",44.28153992,-78.34574127,Eastern Standard Time,-300,GMT-05:00 America/Toronto
553,Safeway - Surrey #184,Starbucks,79695-115465,,LS,7165 138 Street,7165 138 Street,,,Surrey,BC,CA,V3W 7T9,"(49.1324844360352, -122.840103149414)",49.13248444,-122.8401031,Pacific Standard Time,-480,GMT-08:00 America/Vancouver
558,Safeway - Aldergrove #165,Starbucks,79692-120228,6048571351,LS,27566 Frazer Hwy,27566 Frazer Hwy,,,Aldergrove,BC,CA,V4W 3N5,"(49.0570526123047, -122.460639953613)",49.05705261,-122.46064,Pacific Standard Time,-480,GMT-08:00 America/Vancouver
573,Safeway Mission  - #142,Starbucks,79694-120227,6048265369,LS,32520 Lougheed Hwy,32520 Lougheed Hwy,,,Mission,BC,CA,V2V 1A5,"(49.1322174072266, -122.323623657227)",49.13221741,-122.3236237,Pacific Standard Time,-480,GMT-08:00 America/Vancouver
582,Compass @ University of Toronto Mis,Starbucks,75482-115327,,LS,3359 Mississauga Rd N,3359 Mississauga Rd N,,,Mississauga,ON,CA,L5L 1C6,"(43.548900604248, -79.6639785766602)",43.5489006,-79.66397858,Eastern Standard Time,-300,GMT-05:00 America/Toronto
587,NAIT Common Market,Starbucks,75483-108258,,LS,118 Ave NW & 106 Street NW,118 Ave NW & 106 Street NW,,,Edmonton,AB,CA,T5G 2R1,"(53.5712814331055, -113.50659942627)",53.57128143,-113.5065994,Mountain Standard Time,-420,GMT-07:00 America/Edmonton
591,Safeway - Vancouver #90,Starbucks,79546-102430,,LS,1641 Davie Street,1641 Davie Street,,,Vancouver,BC,CA,V6G 1W1,"(49.285572052002, -123.138748168945)",49.28557205,-123.1387482,Pacific Standard Time,-480,GMT-08:00 America/Vancouver
614,Safeway - Calgary #212,Starbucks,74984-102932,,LS,813 11th Avenue SW,813 11th Avenue SW,,,Calgary,AB,CA,T2R 0E6,"(51.0424003601074, -114.080421447754)",51.04240036,-114.0804214,Mountain Standard Time,-420,GMT-07:00 America/Edmonton
617,Hwy 97 & Riverside Dr - Penticton,Starbucks,4972-104887,(250) 492-6133,CO,300 Riverside Drive,300 Riverside Drive,,,Penticton,BC,CA,V2A 5Y5,"(49.495792388916, -119.615234375)",49.49579239,-119.6152344,Pacific Standard Time,-480,GMT-08:00 America/Vancouver
618,Panorama Village -Hwy 10 & 152nd,Starbucks,4783-100748,(604) 574-0664,CO,"15161 #10 Hwy, 108, Panarama Village",15161 #10 Hwy,108,Panarama Village,Surrey,BC,CA,V3S 9A5,"(49.1046104431152, -122.802200317383)",49.10461044,-122.8022003,Pacific Standard Time,-480,GMT-08:00 America/Vancouver
620,Safeway - Hinton #825,Starbucks,70316-102937,,LS,900 Carmichael Ln,900 Carmichael Ln,,,Hinton,AB,CA,T7V 1Y6,"(53.4091415405273, -117.586372375488)",53.40914154,-117.5863724,Mountain Standard Time,-420,GMT-07:00 America/Edmonton
622,1783 Stone Church Rd,Starbucks,4980-138085,905-578-1411,CO,"1783 Stone Church Road, Heritage Green",1783 Stone Church Road,,Heritage Green,Stoney Creek,ON,CA,L8J 0B4,"(43.1955451965332, -79.8106231689453)",43.1955452,-79.81062317,Eastern Standard Time,-300,GMT-05:00 America/Toronto
623,Southtrail,Starbucks,4602-94979,403-726-9041,CO,"4600 - 130th Ave SE, Southtrail Shopping Centre",4600 - 130th Ave SE,,Southtrail Shopping Centre,Calgary,AB,CA,T2Z 0C2,"(50.9324417114258, -113.970458984375)",50.93244171,-113.970459,Mountain Standard Time,-420,GMT-07:00 America/Edmonton
624,Taylor Ave & 67th St,Starbucks,4634-99283,403-356-4791,CO,"6730 Taylor Dr, Unit 300, Taylor Plaza",6730 Taylor Dr,Unit 300,Taylor Plaza,Red Deer,AB,CA,T4P 1K4,"(52.2890243530273, -113.838516235352)",52.28902435,-113.8385162,Mountain Standard Time,-420,GMT-07:00 America/Edmonton
627,Yonge & Park Home,Starbucks,4703-102543,416-223-9903,CO,5140 Yonge Street,5140 Yonge Street,,,Toronto,ON,CA,M2N 6L7,"(43.7682876586914, -79.4129486083984)",43.76828766,-79.41294861,Eastern Standard Time,-300,GMT-05:00 America/Toronto
629,Millwoods Town Centre,Starbucks,4670-100005,780-466-2570,CO,"5808 23rd Ave, Millwoods Town Centre",5808 23rd Ave,,Millwoods Town Centre,Edmonton,AB,CA,T6K 4B5,"(53.4543113708496, -113.429862976074)",53.45431137,-113.429863,Mountain Standard Time,-420,GMT-07:00 America/Edmonton
630,Whitemud Dr & 17th St,Starbucks,4797-106691,(780) 463-9425,CO,"3904 17th Street NW, Riocan Meadows",3904 17th Street NW,,Riocan Meadows,Edmonton,AB,CA,T6T 0C2,"(53.4783554077148, -113.371192932129)",53.47835541,-113.3711929,Mountain Standard Time,-420,GMT-07:00 America/Edmonton
631,Safeway - Red Deer #813,Starbucks,79542-102931,403-346-1886,LS,4408 50th Avenue,4408 50th Avenue,,,Red Deer,AB,CA,T4N 3Z6,"(52.2634506225586, -113.814079284668)",52.26345062,-113.8140793,Mountain Standard Time,-420,GMT-07:00 America/Edmonton
633,Bankers Hall Plus +15,Starbucks,4734-104317,403-261-2055,CO,"855 2nd St S.W., Unit 204, Bankers Hall",855 2nd St S.W.,Unit 204,Bankers Hall,Calgary,AB,CA,T2P 4J8,"(51.0453834533691, -114.068176269531)",51.04538345,-114.0681763,Mountain Standard Time,-420,GMT-07:00 America/Edmonton
634,675 Appleby Line,Starbucks,4675-100793,905-637-7018,CO,675 Appleby Line,675 Appleby Line,,,Burlington,ON,CA,L7L 2Y5,"(43.3733215332031, -79.761116027832)",43.37332153,-79.76111603,Eastern Standard Time,-300,GMT-05:00 America/Toronto
635,503 Brant St,Starbucks,4709-103125,905-631-7663,CO,503 Brant St,503 Brant St,,,Burlington,ON,CA,L7R 2G5,"(43.3276290893555, -79.8004455566406)",43.32762909,-79.80044556,Eastern Standard Time,-300,GMT-05:00 America/Toronto
637,Jasper Ave & 119 St,Starbucks,4671-100371,780-447-7363,CO,"11903 Jasper Avenue, CRU #1, Illuminada",11903 Jasper Avenue,CRU #1,Illuminada,Edmonton,AB,CA,T5K 0N8,"(53.5407981872559, -113.52702331543)",53.54079819,-113.5270233,Mountain Standard Time,-420,GMT-07:00 America/Edmonton
638,North York Regional Hospital - Toro,Starbucks,75397-104159,416-756-6000,LS,4001 Leslie Street,4001 Leslie Street,,,Toronto,ON,CA,M2K 1E1,"(43.7689247131348, -79.3632659912109)",43.76892471,-79.36326599,Eastern Standard Time,-300,GMT-05:00 America/Toronto
639,Safeway - Regina #367,Starbucks,79543-102411,13065438749,LS,353 Albert St North,353 Albert St North,,,Regina,SK,CA,S4R 3C3,"(50.4825897216797, -104.617889404297)",50.48258972,-104.6178894,Canada Central Standard Time,-360,GMT-06:00 America/Regina
640,Safeway - Fort Frances #674,Starbucks,79560-102424,,LS,417 Scott Street,417 Scott Street,,,Fort Frances,ON,CA,P9A 1H3,"(48.6100234985352, -93.3920822143555)",48.6100235,-93.39208221,Central Standard Time,-360,GMT-06:00 America/Rainy_River
641,Safeway - Prince Albert #356,Starbucks,79568-102941,13069221242,LS,2995 2nd Avenue W,2995 2nd Avenue W,,,Prince Albert,SK,CA,S6V 5V5,"(53.1856384277344, -105.762733459473)",53.18563843,-105.7627335,Canada Central Standard Time,-360,GMT-06:00 America/Regina
642,1040 Kennedy Circle,Starbucks,4756-104231,905-876-0276,CO,1040 Kennedy Circle,1040 Kennedy Circle,,,Milton,ON,CA,L9T 0J9,"(43.5070571899414, -79.8377304077148)",43.50705719,-79.83773041,Eastern Standard Time,-300,GMT-05:00 America/Toronto
643,95 King St S,Starbucks,4733-103130,519-886-2604,CO,95 King Street South,95 King Street South,,,Waterloo,ON,CA,N2J 1P2,"(43.4627647399902, -80.5218658447266)",43.46276474,-80.52186584,Eastern Standard Time,-300,GMT-05:00 America/Toronto
644,Yonge & Finch,Starbucks,4717-102447,416-221-4820,CO,"5650 Yonge St, Suite 101",5650 Yonge St,Suite 101,,Toronto,ON,CA,M2M 4G3,"(43.7798843383789, -79.4162216186523)",43.77988434,-79.41622162,Eastern Standard Time,-300,GMT-05:00 America/Toronto
645,Lonsdale & 29th,Starbucks,4714-101455,604-984-7969,CO,2925 Lonsdale Avenue,2925 Lonsdale Avenue,,,North Vancouver,BC,CA,V7N 3J3,"(49.335865020752, -123.072212219238)",49.33586502,-123.0722122,Pacific Standard Time,-480,GMT-08:00 America/Vancouver
646,Queen & Logan,Starbucks,4718-100794,416-461-9788,CO,908 Queen St E,908 Queen St E,,,Toronto,ON,CA,M4M 1J5,"(43.6606750488281, -79.3423767089844)",43.66067505,-79.34237671,Eastern Standard Time,-300,GMT-05:00 America/Toronto
648,Summit Ctre - Kamloops,Starbucks,4691-99966,250-372-5205,CO,"1180 Columbia Street West, H101, Summit Shopping Centre",1180 Columbia Street West,H101,Summit Shopping Centre,Kamloops,BC,CA,V2C 6R6,"(50.6638488769531, -120.355339050293)",50.66384888,-120.3553391,Pacific Standard Time,-480,GMT-08:00 America/Vancouver
650,525 Hespeler Rd,Starbucks,4097-139548,519-623-9146,CO,525 Hespeler Rd,525 Hespeler Rd,,,Cambridge,ON,CA,N1R 6J2,"(43.4011764526367, -80.3252716064453)",43.40117645,-80.32527161,Eastern Standard Time,-300,GMT-05:00 America/Toronto
651,McLeod Park,Starbucks,4939-128484,780 473 0766,CO,5956 153 Avenue NW,5956 153 Avenue NW,,,Edmonton,AB,CA,T5Y 2W1,"(53.616138458252, -113.432411193848)",53.61613846,-113.4324112,Mountain Standard Time,-420,GMT-07:00 America/Edmonton
652,Departure Bay Ferry Terminal,Starbucks,4964-133208,(250) 754-1594,CO,"680 TransCanada Highway, Departure Bay Ferry Terminal",680 TransCanada Highway,,Departure Bay Ferry Terminal,Nanaimo,BC,CA,V9S 5R1,"(49.1934242248535, -123.955017089844)",49.19342422,-123.9550171,Pacific Standard Time,-480,GMT-08:00 America/Vancouver
